{
  "type": "FeatureCollection",
  "features": [
    {
      "type": "Feature", 
      "geometry": {
        "type": "LineString", 
        "coordinates": [
            [10.07889, 46.29313], 
            [10.08814, 46.30994], 
            [10.05823, 46.32441], 
            [9.90126, 46.4955], 
            [9.17114, 46.49714]
          ]
      },
      "properties": {
        "name": "8. August 1882"
      }
    },
    {
      "type": "Feature",
      "geometry": {
        "type": "Point",
        "coordinates": [9.90126, 46.4955]
      },
      "properties": {
         "id": "pmb34946",
         "title": "Pontresina",
         "lat": "46.4955",
         "lon": "9.90126",
         "timestamp": ["1882-08-08"],
         "importance": "1"
      }
      },
    {
      "type": "Feature",
      "geometry": {
        "type": "Point",
        "coordinates": [10.08814, 46.30994]
      },
      "properties": {
         "id": "pmb90342",
         "title": "Bernina [Bezirk]",
         "lat": "46.30994",
         "lon": "10.08814",
         "timestamp": ["1882-08-08"],
         "importance": "1"
      }
      },
    {
      "type": "Feature",
      "geometry": {
        "type": "Point",
        "coordinates": [10.05823, 46.32441]
      },
      "properties": {
         "id": "pmb91514",
         "title": "Poschiavo",
         "lat": "46.32441",
         "lon": "10.05823",
         "timestamp": ["1882-08-08"],
         "importance": "1"
      }
      },
    {
      "type": "Feature",
      "geometry": {
        "type": "Point",
        "coordinates": [10.07889, 46.29313]
      },
      "properties": {
         "id": "pmb1046",
         "title": "Le Prese",
         "lat": "46.29313",
         "lon": "10.07889",
         "timestamp": ["1882-08-08"],
         "importance": "1", 
        "wikipedia": "https://de.wikipedia.org/wiki/Le_Prese", 
        "wikidata": "http://www.wikidata.org/entity/Q6507517"
      }
      },
    {
      "type": "Feature",
      "geometry": {
        "type": "Point",
        "coordinates": [9.17114, 46.49714]
      },
      "properties": {
         "id": "pmb90338",
         "title": "San Bernardino Pass",
         "lat": "46.49714",
         "lon": "9.17114",
         "timestamp": ["1882-08-08"],
         "importance": "1"
      }
      }
  ]
}