{
  "type": "FeatureCollection",
  "features": [
    {
      "type": "Feature", 
      "geometry": {
        "type": "LineString", 
        "coordinates": [
            [-1.5761111111111, 50.666388888889], 
            [-1.52616, 50.68365], 
            [-1.31389, 50.6875], 
            [-1.29124, 50.70146], 
            [-1.20672, 50.59449], 
            [-0.174938, 51.495309]
          ]
      },
      "properties": {
        "name": "24. Juli 1888"
      }
    },
    {
      "type": "Feature",
      "geometry": {
        "type": "Point",
        "coordinates": [-0.174938, 51.495309]
      },
      "properties": {
         "id": "pmb92194",
         "title": "Cromwell Place",
         "lat": "51.495309",
         "lon": "-0.174938",
         "timestamp": ["1888-07-24"],
         "importance": "1"
      }
      },
    {
      "type": "Feature",
      "geometry": {
        "type": "Point",
        "coordinates": [-1.20672, 50.59449]
      },
      "properties": {
         "id": "pmb92005",
         "title": "Ventnor",
         "lat": "50.59449",
         "lon": "-1.20672",
         "timestamp": ["1888-07-24"],
         "importance": "1"
      }
      },
    {
      "type": "Feature",
      "geometry": {
        "type": "Point",
        "coordinates": [-1.29124, 50.70146]
      },
      "properties": {
         "id": "pmb91348",
         "title": "Newport",
         "lat": "50.70146",
         "lon": "-1.29124",
         "timestamp": ["1888-07-24"],
         "importance": "1"
      }
      },
    {
      "type": "Feature",
      "geometry": {
        "type": "Point",
        "coordinates": [-1.5761111111111, 50.666388888889]
      },
      "properties": {
         "id": "pmb185294",
         "title": "Alum Bay",
         "lat": "50.666388888889",
         "lon": "-1.5761111111111",
         "timestamp": ["1888-07-24"],
         "importance": "1", 
        "wikipedia": "https://de.wikipedia.org/wiki/Alum_Bay", 
        "wikidata": "http://www.wikidata.org/entity/Q447363"
      }
      },
    {
      "type": "Feature",
      "geometry": {
        "type": "Point",
        "coordinates": [-1.31389, 50.6875]
      },
      "properties": {
         "id": "pmb185297",
         "title": "Carisbrooke Castle",
         "lat": "50.6875",
         "lon": "-1.31389",
         "timestamp": ["1888-07-24"],
         "importance": "1", 
        "wikipedia": "https://de.wikipedia.org/wiki/Carisbrooke_Castle", 
        "wikidata": "http://www.wikidata.org/entity/Q328595"
      }
      },
    {
      "type": "Feature",
      "geometry": {
        "type": "Point",
        "coordinates": [-1.52616, 50.68365]
      },
      "properties": {
         "id": "pmb90653",
         "title": "Freshwater",
         "lat": "50.68365",
         "lon": "-1.52616",
         "timestamp": ["1888-07-24"],
         "importance": "1"
      }
      }
  ]
}