{
  "type": "FeatureCollection",
  "features": [
    {
      "type": "Feature",
      "geometry": {
        "type": "Point",
        "coordinates": [16.373056, 48.208333]
      },
      "properties": {
         "id": "pmb50",
         "title": "Wien",
         "lat": "48.208333",
         "lon": "16.373056",
         "timestamp": ["1892-06-01", "1892-06-02", "1892-06-03", "1892-06-04", "1892-06-05", "1892-06-06", "1892-06-07", "1892-06-08", "1892-06-09", "1892-06-10", "1892-06-11", "1892-06-12", "1892-06-13", "1892-06-14", "1892-06-15", "1892-06-16", "1892-06-17", "1892-06-18", "1892-06-19", "1892-06-20", "1892-06-21", "1892-06-22", "1892-06-23", "1892-06-24", "1892-06-25", "1892-06-26", "1892-06-27", "1892-06-28", "1892-06-29", "1892-06-30"],
         "importance": "30", 
        "wikipedia": "https://de.wikipedia.org/wiki/Wien", 
        "wikidata": "http://www.wikidata.org/entity/Q1741"
      }
      }, 
    {
      "type": "Feature",
      "geometry": {
        "type": "Point",
        "coordinates": [16.372139, 48.208141]
      },
      "properties": {
         "id": "pmb42749",
         "title": "Stephanskeller",
         "lat": "48.208141",
         "lon": "16.372139",
         "timestamp": ["1892-06-10"],
         "importance": "1", 
        "wiengeschichtewiki": "https://www.geschichtewiki.wien.gv.at/Stephanskeller"
      }
      }, 
    {
      "type": "Feature",
      "geometry": {
        "type": "Point",
        "coordinates": [16.33306, 48.25]
      },
      "properties": {
         "id": "pmb69",
         "title": "XIX., Döbling",
         "lat": "48.25",
         "lon": "16.33306",
         "timestamp": ["1892-06-06"],
         "importance": "1", 
        "wikipedia": "https://de.wikipedia.org/wiki/D%C3%B6bling", 
        "wikidata": "http://www.wikidata.org/entity/Q267360"
      }
      }, 
    {
      "type": "Feature",
      "geometry": {
        "type": "Point",
        "coordinates": [16.32522, 48.30521]
      },
      "properties": {
         "id": "pmb865",
         "title": "Klosterneuburg",
         "lat": "48.30521",
         "lon": "16.32522",
         "timestamp": ["1892-06-21", "1892-06-24"],
         "importance": "2", 
        "wikipedia": "https://de.wikipedia.org/wiki/Klosterneuburg", 
        "wikidata": "http://www.wikidata.org/entity/Q487522"
      }
      }, 
    {
      "type": "Feature",
      "geometry": {
        "type": "Point",
        "coordinates": [16.23264, 48.00543]
      },
      "properties": {
         "id": "pmb662",
         "title": "Baden bei Wien",
         "lat": "48.00543",
         "lon": "16.23264",
         "timestamp": ["1892-06-01"],
         "importance": "1", 
        "wikipedia": "https://de.wikipedia.org/wiki/Baden_(Nieder%C3%B6sterreich)", 
        "wikidata": "http://www.wikidata.org/entity/Q486450"
      }
      }, 
    {
      "type": "Feature",
      "geometry": {
        "type": "Point",
        "coordinates": [16.29101, 48.17547]
      },
      "properties": {
         "id": "pmb63",
         "title": "XIII., Hietzing",
         "lat": "48.17547",
         "lon": "16.29101",
         "timestamp": ["1892-06-19"],
         "importance": "1", 
        "wikipedia": "https://de.wikipedia.org/wiki/Hietzing", 
        "wikidata": "http://www.wikidata.org/entity/Q636910"
      }
      }, 
    {
      "type": "Feature",
      "geometry": {
        "type": "Point",
        "coordinates": [16.382332, 48.213759]
      },
      "properties": {
         "id": "pmb192320",
         "title": "Zirkusgasse 2",
         "lat": "48.213759",
         "lon": "16.382332",
         "timestamp": ["1892-06-28", "1892-06-30"],
         "importance": "2"
      }
      }, 
    {
      "type": "Feature",
      "geometry": {
        "type": "Point",
        "coordinates": [16.3566, 48.205142]
      },
      "properties": {
         "id": "pmb20",
         "title": "Volkstheater",
         "lat": "48.205142",
         "lon": "16.3566",
         "timestamp": ["1892-06-03"],
         "importance": "1", 
        "wikipedia": "https://de.wikipedia.org/wiki/Volkstheater_(Wien)", 
        "wiengeschichtewiki": "https://www.geschichtewiki.wien.gv.at/Special:URIResolver/?curid=6125", 
        "wikidata": "http://www.wikidata.org/entity/Q688555"
      }
      }, 
    {
      "type": "Feature",
      "geometry": {
        "type": "Point",
        "coordinates": [16.37196, 48.20143]
      },
      "properties": {
         "id": "pmb167805",
         "title": "Kärntnerring 12/Bösendorferstraße 11",
         "lat": "48.20143",
         "lon": "16.37196",
         "timestamp": ["1892-06-01", "1892-06-02", "1892-06-03", "1892-06-04", "1892-06-05", "1892-06-06", "1892-06-07", "1892-06-08", "1892-06-09", "1892-06-10", "1892-06-11", "1892-06-12", "1892-06-13", "1892-06-14", "1892-06-15", "1892-06-16", "1892-06-17", "1892-06-18", "1892-06-19", "1892-06-20", "1892-06-21", "1892-06-22", "1892-06-23", "1892-06-24", "1892-06-25", "1892-06-26", "1892-06-27", "1892-06-28", "1892-06-29", "1892-06-30"],
         "importance": "30"
      }
      }, 
    {
      "type": "Feature",
      "geometry": {
        "type": "Point",
        "coordinates": [16.357071, 48.197731]
      },
      "properties": {
         "id": "pmb186806",
         "title": "Zum Jägerhorn",
         "lat": "48.197731",
         "lon": "16.357071",
         "timestamp": ["1892-06-20", "1892-06-22", "1892-06-25", "1892-06-26", "1892-06-29"],
         "importance": "5"
      }
      }, 
    {
      "type": "Feature",
      "geometry": {
        "type": "Point",
        "coordinates": [16.30865, 48.291]
      },
      "properties": {
         "id": "pmb44392",
         "title": "Weidling",
         "lat": "48.291",
         "lon": "16.30865",
         "timestamp": ["1892-06-24"],
         "importance": "1", 
        "wikipedia": "https://de.wikipedia.org/wiki/Weidling_(Gemeinde_Klosterneuburg)", 
        "wikidata": "http://www.wikidata.org/entity/Q484858"
      }
      }, 
    {
      "type": "Feature",
      "geometry": {
        "type": "Point",
        "coordinates": [16.378692, 48.200456]
      },
      "properties": {
         "id": "pmb190982",
         "title": "Johann Schmidtleitner",
         "lat": "48.200456",
         "lon": "16.378692",
         "timestamp": ["1892-06-13"],
         "importance": "1"
      }
      }, 
    {
      "type": "Feature",
      "geometry": {
        "type": "Point",
        "coordinates": [16.409444, 48.212222]
      },
      "properties": {
         "id": "pmb45128",
         "title": "Internationales Ausstellungstheater im k.k. Prater",
         "lat": "48.212222",
         "lon": "16.409444",
         "timestamp": ["1892-06-02", "1892-06-04", "1892-06-08", "1892-06-10", "1892-06-15", "1892-06-18"],
         "importance": "6", 
        "wiengeschichtewiki": "https://www.geschichtewiki.wien.gv.at/Internationales_Ausstellungstheater", 
        "wikidata": "http://www.wikidata.org/entity/Q46092813"
      }
      }, 
    {
      "type": "Feature",
      "geometry": {
        "type": "Point",
        "coordinates": [16.40752, 48.21409]
      },
      "properties": {
         "id": "pmb192287",
         "title": "Internationale Ausstellung für Musik und Theaterwesen 1892",
         "lat": "48.21409",
         "lon": "16.40752",
         "timestamp": ["1892-06-17"],
         "importance": "1"
      }
      }, 
    {
      "type": "Feature",
      "geometry": {
        "type": "Point",
        "coordinates": [16.36143, 48.30432]
      },
      "properties": {
         "id": "pmb51088",
         "title": "Langenzersdorf",
         "lat": "48.30432",
         "lon": "16.36143",
         "timestamp": ["1892-06-11"],
         "importance": "1"
      }
      }, 
    {
      "type": "Feature",
      "geometry": {
        "type": "Point",
        "coordinates": [16.40051, 48.21762]
      },
      "properties": {
         "id": "pmb79",
         "title": "Zum Paradiesgarten (Inh. Joh. Hauswirth)",
         "lat": "48.21762",
         "lon": "16.40051",
         "timestamp": ["1892-06-17"],
         "importance": "1"
      }
      }, 
    {
      "type": "Feature",
      "geometry": {
        "type": "Point",
        "coordinates": [16.28929, 48.17381]
      },
      "properties": {
         "id": "pmb49452",
         "title": "Lainz",
         "lat": "48.17381",
         "lon": "16.28929",
         "timestamp": ["1892-06-19"],
         "importance": "1", 
        "wikipedia": "https://de.wikipedia.org/wiki/Lainz", 
        "wikidata": "http://www.wikidata.org/entity/Q1261352"
      }
      }, 
    {
      "type": "Feature",
      "geometry": {
        "type": "Point",
        "coordinates": [16.32428, 48.3065]
      },
      "properties": {
         "id": "pmb192317",
         "title": "Stiftskeller Klosterneuburg",
         "lat": "48.3065",
         "lon": "16.32428",
         "timestamp": ["1892-06-21"],
         "importance": "1", 
        "wikidata": "http://www.wikidata.org/entity/Q38139807"
      }
      }, 
    {
      "type": "Feature",
      "geometry": {
        "type": "Point",
        "coordinates": [16.30011, 48.32932]
      },
      "properties": {
         "id": "pmb91077",
         "title": "Kritzendorf",
         "lat": "48.32932",
         "lon": "16.30011",
         "timestamp": ["1892-06-21"],
         "importance": "1"
      }
      }
  ]
}