{
  "type": "FeatureCollection",
  "features": [
    {
      "type": "Feature", 
      "geometry": {
        "type": "LineString", 
        "coordinates": [
            [16.23264, 48.00543], 
            [16.46667, 48.13333], 
            [16.373056, 48.208333], 
            [16.36471, 48.200556], 
            [16.35736, 48.21533]
          ]
      },
      "properties": {
        "name": "16. September 1894"
      }
    },
    {
      "type": "Feature",
      "geometry": {
        "type": "Point",
        "coordinates": [16.373056, 48.208333]
      },
      "properties": {
         "id": "pmb50",
         "title": "Wien",
         "lat": "48.208333",
         "lon": "16.373056",
         "timestamp": ["1894-09-16"],
         "importance": "1", 
        "wikipedia": "https://de.wikipedia.org/wiki/Wien", 
        "wikidata": "http://www.wikidata.org/entity/Q1741"
      }
      },
    {
      "type": "Feature",
      "geometry": {
        "type": "Point",
        "coordinates": [16.36471, 48.200556]
      },
      "properties": {
         "id": "pmb97",
         "title": "Zum Weingartl",
         "lat": "48.200556",
         "lon": "16.36471",
         "timestamp": ["1894-09-16"],
         "importance": "1"
      }
      },
    {
      "type": "Feature",
      "geometry": {
        "type": "Point",
        "coordinates": [16.46667, 48.13333]
      },
      "properties": {
         "id": "pmb42535",
         "title": "Schwechat",
         "lat": "48.13333",
         "lon": "16.46667",
         "timestamp": ["1894-09-16"],
         "importance": "1"
      }
      },
    {
      "type": "Feature",
      "geometry": {
        "type": "Point",
        "coordinates": [16.23264, 48.00543]
      },
      "properties": {
         "id": "pmb662",
         "title": "Baden bei Wien",
         "lat": "48.00543",
         "lon": "16.23264",
         "timestamp": ["1894-09-16"],
         "importance": "1", 
        "wikipedia": "https://de.wikipedia.org/wiki/Baden_(Nieder%C3%B6sterreich)", 
        "wikidata": "http://www.wikidata.org/entity/Q486450"
      }
      },
    {
      "type": "Feature",
      "geometry": {
        "type": "Point",
        "coordinates": [16.35736, 48.21533]
      },
      "properties": {
         "id": "pmb168934",
         "title": "Frankgasse 1",
         "lat": "48.21533",
         "lon": "16.35736",
         "timestamp": ["1894-09-16"],
         "importance": "1"
      }
      }
  ]
}