{
  "type": "FeatureCollection",
  "features": [
    {
      "type": "Feature", 
      "geometry": {
        "type": "LineString", 
        "coordinates": [
            [16.34706, 48.21126], 
            [16.361139, 48.210333], 
            [16.373056, 48.208333], 
            [16.377439, 48.208532], 
            [16.360855, 48.217017], 
            [16.35736, 48.21533]
          ]
      },
      "properties": {
        "name": "15. Oktober 1895"
      }
    },
    {
      "type": "Feature",
      "geometry": {
        "type": "Point",
        "coordinates": [16.373056, 48.208333]
      },
      "properties": {
         "id": "pmb50",
         "title": "Wien",
         "lat": "48.208333",
         "lon": "16.373056",
         "timestamp": ["1895-10-15"],
         "importance": "1", 
        "wikipedia": "https://de.wikipedia.org/wiki/Wien", 
        "wikidata": "http://www.wikidata.org/entity/Q1741"
      }
      },
    {
      "type": "Feature",
      "geometry": {
        "type": "Point",
        "coordinates": [16.360855, 48.217017]
      },
      "properties": {
         "id": "pmb199331",
         "title": "Wasagasse 11",
         "lat": "48.217017",
         "lon": "16.360855",
         "timestamp": ["1895-10-15"],
         "importance": "1"
      }
      },
    {
      "type": "Feature",
      "geometry": {
        "type": "Point",
        "coordinates": [16.377439, 48.208532]
      },
      "properties": {
         "id": "pmb199336",
         "title": "Bäckerstraße 20",
         "lat": "48.208532",
         "lon": "16.377439",
         "timestamp": ["1895-10-15"],
         "importance": "1"
      }
      },
    {
      "type": "Feature",
      "geometry": {
        "type": "Point",
        "coordinates": [16.34706, 48.21126]
      },
      "properties": {
         "id": "pmb58",
         "title": "VIII., Josefstadt",
         "lat": "48.21126",
         "lon": "16.34706",
         "timestamp": ["1895-10-15"],
         "importance": "1", 
        "wikipedia": "https://de.wikipedia.org/wiki/Josefstadt_(Wien)", 
        "wikidata": "http://www.wikidata.org/entity/Q256778"
      }
      },
    {
      "type": "Feature",
      "geometry": {
        "type": "Point",
        "coordinates": [16.361139, 48.210333]
      },
      "properties": {
         "id": "pmb14",
         "title": "Burgtheater",
         "lat": "48.210333",
         "lon": "16.361139",
         "timestamp": ["1895-10-15"],
         "importance": "1"
      }
      },
    {
      "type": "Feature",
      "geometry": {
        "type": "Point",
        "coordinates": [16.35736, 48.21533]
      },
      "properties": {
         "id": "pmb168934",
         "title": "Frankgasse 1",
         "lat": "48.21533",
         "lon": "16.35736",
         "timestamp": ["1895-10-15"],
         "importance": "1"
      }
      }
  ]
}