{
  "type": "FeatureCollection",
  "features": [
    {
      "type": "Feature", 
      "geometry": {
        "type": "LineString", 
        "coordinates": [
            [16.366111, 48.208258], 
            [16.369444, 48.203889], 
            [16.37049, 48.20368], 
            [16.373056, 48.208333], 
            [16.35736, 48.21533], 
            [16.361139, 48.210333]
          ]
      },
      "properties": {
        "name": "11. November 1895"
      }
    },
    {
      "type": "Feature",
      "geometry": {
        "type": "Point",
        "coordinates": [16.373056, 48.208333]
      },
      "properties": {
         "id": "pmb50",
         "title": "Wien",
         "lat": "48.208333",
         "lon": "16.373056",
         "timestamp": ["1895-11-11"],
         "importance": "1", 
        "wikipedia": "https://de.wikipedia.org/wiki/Wien", 
        "wikidata": "http://www.wikidata.org/entity/Q1741"
      }
      },
    {
      "type": "Feature",
      "geometry": {
        "type": "Point",
        "coordinates": [16.369444, 48.203889]
      },
      "properties": {
         "id": "pmb29",
         "title": "Hotel Sacher",
         "lat": "48.203889",
         "lon": "16.369444",
         "timestamp": ["1895-11-11"],
         "importance": "1"
      }
      },
    {
      "type": "Feature",
      "geometry": {
        "type": "Point",
        "coordinates": [16.366111, 48.208258]
      },
      "properties": {
         "id": "pmb34",
         "title": "Café Griensteidl",
         "lat": "48.208258",
         "lon": "16.366111",
         "timestamp": ["1895-11-11"],
         "importance": "1", 
        "wikipedia": "https://de.wikipedia.org/wiki/Caf%C3%A9_Griensteidl", 
        "wikidata": "http://www.wikidata.org/entity/Q877029"
      }
      },
    {
      "type": "Feature",
      "geometry": {
        "type": "Point",
        "coordinates": [16.37049, 48.20368]
      },
      "properties": {
         "id": "pmb119",
         "title": "Café Scheidl",
         "lat": "48.20368",
         "lon": "16.37049",
         "timestamp": ["1895-11-11"],
         "importance": "1", 
        "wiengeschichtewiki": "https://www.geschichtewiki.wien.gv.at/Café_Fenstergucker"
      }
      },
    {
      "type": "Feature",
      "geometry": {
        "type": "Point",
        "coordinates": [16.361139, 48.210333]
      },
      "properties": {
         "id": "pmb14",
         "title": "Burgtheater",
         "lat": "48.210333",
         "lon": "16.361139",
         "timestamp": ["1895-11-11"],
         "importance": "1"
      }
      },
    {
      "type": "Feature",
      "geometry": {
        "type": "Point",
        "coordinates": [16.35736, 48.21533]
      },
      "properties": {
         "id": "pmb168934",
         "title": "Frankgasse 1",
         "lat": "48.21533",
         "lon": "16.35736",
         "timestamp": ["1895-11-11"],
         "importance": "1"
      }
      }
  ]
}