{
  "type": "FeatureCollection",
  "features": [
    {
      "type": "Feature", 
      "geometry": {
        "type": "LineString", 
        "coordinates": [
            [16.34706, 48.21126], 
            [16.361139, 48.210333], 
            [16.377439, 48.208532], 
            [16.360855, 48.217017], 
            [16.35736, 48.21533]
          ]
      },
      "properties": {
        "name": "15. Oktober 1895"
      }
    },
    {
      "type": "Feature",
      "geometry": {
        "type": "Point",
        "coordinates": [
          16.360855, 48.217017
        ]
      },
      "properties": {
        "title": "Wasagasse 11",
        "timestamp": ["1895-10-15"],
        "id": "https://pmb.acdh.oeaw.ac.at/entity/pmb199331/"
      }
      },
    {
      "type": "Feature",
      "geometry": {
        "type": "Point",
        "coordinates": [
          16.35736, 48.21533
        ]
      },
      "properties": {
        "title": "Frankgasse 1",
        "timestamp": ["1895-10-15"],
        "id": "https://pmb.acdh.oeaw.ac.at/entity/pmb168934/"
      }
      },
    {
      "type": "Feature",
      "geometry": {
        "type": "Point",
        "coordinates": [
          16.377439, 48.208532
        ]
      },
      "properties": {
        "title": "Bäckerstraße 20",
        "timestamp": ["1895-10-15"],
        "id": "https://pmb.acdh.oeaw.ac.at/entity/pmb199336/"
      }
      },
    {
      "type": "Feature",
      "geometry": {
        "type": "Point",
        "coordinates": [
          16.361139, 48.210333
        ]
      },
      "properties": {
        "title": "Burgtheater",
        "timestamp": ["1895-10-15"],
        "id": "https://pmb.acdh.oeaw.ac.at/entity/pmb14/"
      }
      },
    {
      "type": "Feature",
      "geometry": {
        "type": "Point",
        "coordinates": [
          16.34706, 48.21126
        ]
      },
      "properties": {
        "title": "VIII., Josefstadt",
        "timestamp": ["1895-10-15"],
        "id": "https://pmb.acdh.oeaw.ac.at/entity/pmb58/", 
        "wikipedia": "https://de.wikipedia.org/wiki/Josefstadt_(Wien)"
      }
      }
  ]
}