{
  "type": "FeatureCollection",
  "features": [
    {
      "type": "Feature", 
      "geometry": {
        "type": "LineString", 
        "coordinates": [
            [16.373056, 48.208333], 
            [16.375924, 48.208656], 
            [16.3589845, 48.2195962], 
            [16.35736, 48.21533], 
            [16.348268, 48.216958]
          ]
      },
      "properties": {
        "name": "8. März 1896"
      }
    },
    {
      "type": "Feature",
      "geometry": {
        "type": "Point",
        "coordinates": [16.373056, 48.208333]
      },
      "properties": {
         "id": "pmb50",
         "title": "Wien",
         "lat": "48.208333",
         "lon": "16.373056",
         "timestamp": ["1896-03-08"],
         "importance": "1", 
        "wikipedia": "https://de.wikipedia.org/wiki/Wien", 
        "wikidata": "http://www.wikidata.org/entity/Q1741"
      }
      },
    {
      "type": "Feature",
      "geometry": {
        "type": "Point",
        "coordinates": [16.3589845, 48.2195962]
      },
      "properties": {
         "id": "pmb182762",
         "title": "Danzer’s Orpheum",
         "lat": "48.2195962",
         "lon": "16.3589845",
         "timestamp": ["1896-03-08"],
         "importance": "1"
      }
      },
    {
      "type": "Feature",
      "geometry": {
        "type": "Point",
        "coordinates": [16.348268, 48.216958]
      },
      "properties": {
         "id": "pmb199398",
         "title": "Pelikangasse 16",
         "lat": "48.216958",
         "lon": "16.348268",
         "timestamp": ["1896-03-08"],
         "importance": "1"
      }
      },
    {
      "type": "Feature",
      "geometry": {
        "type": "Point",
        "coordinates": [16.375924, 48.208656]
      },
      "properties": {
         "id": "pmb190427",
         "title": "Wollzeile 15 (»Berthahof«)",
         "lat": "48.208656",
         "lon": "16.375924",
         "timestamp": ["1896-03-08"],
         "importance": "1"
      }
      },
    {
      "type": "Feature",
      "geometry": {
        "type": "Point",
        "coordinates": [16.35736, 48.21533]
      },
      "properties": {
         "id": "pmb168934",
         "title": "Frankgasse 1",
         "lat": "48.21533",
         "lon": "16.35736",
         "timestamp": ["1896-03-08"],
         "importance": "1"
      }
      }
  ]
}