{
  "type": "FeatureCollection",
  "features": [
    {
      "type": "Feature", 
      "geometry": {
        "type": "LineString", 
        "coordinates": [
            [16.24801, 48.08509], 
            [16.261108, 48.081286], 
            [16.27, 48.0925], 
            [16.29204, 48.10917], 
            [16.357784, 48.205699], 
            [16.35736, 48.21533]
          ]
      },
      "properties": {
        "name": "25. April 1896"
      }
    },
    {
      "type": "Feature",
      "geometry": {
        "type": "Point",
        "coordinates": [
          16.357784, 48.205699
        ]
      },
      "properties": {
        "title": "Volksgartenstraße 5",
        "timestamp": ["1896-04-25"],
        "id": "pmb199437"
      }
      },
    {
      "type": "Feature",
      "geometry": {
        "type": "Point",
        "coordinates": [
          16.35736, 48.21533
        ]
      },
      "properties": {
        "title": "Frankgasse 1",
        "timestamp": ["1896-04-25"],
        "id": "pmb168934"
      }
      },
    {
      "type": "Feature",
      "geometry": {
        "type": "Point",
        "coordinates": [
          16.27, 48.0925
        ]
      },
      "properties": {
        "title": "Burg Liechtenstein",
        "timestamp": ["1896-04-25"],
        "id": "pmb39860"
      }
      },
    {
      "type": "Feature",
      "geometry": {
        "type": "Point",
        "coordinates": [
          16.261108, 48.081286
        ]
      },
      "properties": {
        "title": "Zum goldenen Stern",
        "timestamp": ["1896-04-25"],
        "id": "pmb625"
      }
      },
    {
      "type": "Feature",
      "geometry": {
        "type": "Point",
        "coordinates": [
          16.24801, 48.08509
        ]
      },
      "properties": {
        "title": "Brühl",
        "timestamp": ["1896-04-25"],
        "id": "pmb44413"
      }
      },
    {
      "type": "Feature",
      "geometry": {
        "type": "Point",
        "coordinates": [
          16.29204, 48.10917
        ]
      },
      "properties": {
        "title": "Brunn am Gebirge",
        "timestamp": ["1896-04-25"],
        "id": "pmb40201", 
        "wikipedia": "https://de.wikipedia.org/wiki/Brunn_am_Gebirge"
      }
      }
  ]
}