{
  "type": "FeatureCollection",
  "features": [
    {
      "type": "Feature", 
      "geometry": {
        "type": "LineString", 
        "coordinates": [
            [16.3691, 48.203], 
            [16.37049, 48.20368], 
            [16.362803, 48.215589], 
            [16.338015, 48.234046], 
            [16.35736, 48.21533]
          ]
      },
      "properties": {
        "name": "16. Februar 1896"
      }
    },
    {
      "type": "Feature",
      "geometry": {
        "type": "Point",
        "coordinates": [16.37049, 48.20368]
      },
      "properties": {
         "id": "pmb119",
         "title": "Café Scheidl",
         "lat": "48.20368",
         "lon": "16.37049",
         "timestamp": ["1896-02-16"],
         "importance": "1", 
        "wiengeschichtewiki": "https://www.geschichtewiki.wien.gv.at/Café_Fenstergucker"
      }
      },
    {
      "type": "Feature",
      "geometry": {
        "type": "Point",
        "coordinates": [16.3691, 48.203]
      },
      "properties": {
         "id": "pmb15",
         "title": "Oper",
         "lat": "48.203",
         "lon": "16.3691",
         "timestamp": ["1896-02-16"],
         "importance": "1", 
        "wikipedia": "https://de.wikipedia.org/wiki/Wiener_Staatsoper", 
        "wikidata": "http://www.wikidata.org/entity/Q209937"
      }
      },
    {
      "type": "Feature",
      "geometry": {
        "type": "Point",
        "coordinates": [16.338015, 48.234046]
      },
      "properties": {
         "id": "pmb185644",
         "title": "Peregringasse 4",
         "lat": "48.234046",
         "lon": "16.338015",
         "timestamp": ["1896-02-16"],
         "importance": "1"
      }
      },
    {
      "type": "Feature",
      "geometry": {
        "type": "Point",
        "coordinates": [16.35736, 48.21533]
      },
      "properties": {
         "id": "pmb168934",
         "title": "Frankgasse 1",
         "lat": "48.21533",
         "lon": "16.35736",
         "timestamp": ["1896-02-16"],
         "importance": "1"
      }
      },
    {
      "type": "Feature",
      "geometry": {
        "type": "Point",
        "coordinates": [16.362803, 48.215589]
      },
      "properties": {
         "id": "pmb207250",
         "title": "Wasagasse 4",
         "lat": "48.215589",
         "lon": "16.362803",
         "timestamp": ["1896-02-16"],
         "importance": "1"
      }
      }
  ]
}