{
  "type": "FeatureCollection",
  "features": [
    {
      "type": "Feature", 
      "geometry": {
        "type": "LineString", 
        "coordinates": [
            [13.38832, 52.51699], 
            [13.389865, 52.516823], 
            [13.39108, 52.50319], 
            [13.40993, 52.517146], 
            [13.41053, 52.52437], 
            [13.382222, 52.524444]
          ]
      },
      "properties": {
        "name": "30. Januar 1896"
      }
    },
    {
      "type": "Feature",
      "geometry": {
        "type": "Point",
        "coordinates": [13.41053, 52.52437]
      },
      "properties": {
         "id": "pmb168",
         "title": "Berlin",
         "lat": "52.52437",
         "lon": "13.41053",
         "timestamp": ["1896-01-30"],
         "importance": "1", 
        "wikipedia": "https://de.wikipedia.org/wiki/Berlin", 
        "wikidata": "http://www.wikidata.org/entity/Q64"
      }
      },
    {
      "type": "Feature",
      "geometry": {
        "type": "Point",
        "coordinates": [13.389865, 52.516823]
      },
      "properties": {
         "id": "pmb41234",
         "title": "Hotel Westminster",
         "lat": "52.516823",
         "lon": "13.389865",
         "timestamp": ["1896-01-30"],
         "importance": "1"
      }
      },
    {
      "type": "Feature",
      "geometry": {
        "type": "Point",
        "coordinates": [13.38832, 52.51699]
      },
      "properties": {
         "id": "pmb216",
         "title": "Unter den Linden",
         "lat": "52.51699",
         "lon": "13.38832",
         "timestamp": ["1896-01-30"],
         "importance": "1", 
        "wikipedia": "https://de.wikipedia.org/wiki/Unter_den_Linden", 
        "wikidata": "http://www.wikidata.org/entity/Q160899"
      }
      },
    {
      "type": "Feature",
      "geometry": {
        "type": "Point",
        "coordinates": [13.382222, 52.524444]
      },
      "properties": {
         "id": "pmb3",
         "title": "Deutsches Theater Berlin",
         "lat": "52.524444",
         "lon": "13.382222",
         "timestamp": ["1896-01-30"],
         "importance": "1"
      }
      },
    {
      "type": "Feature",
      "geometry": {
        "type": "Point",
        "coordinates": [13.40993, 52.517146]
      },
      "properties": {
         "id": "pmb92167",
         "title": "Bischofstraße",
         "lat": "52.517146",
         "lon": "13.40993",
         "timestamp": ["1896-01-30"],
         "importance": "1"
      }
      },
    {
      "type": "Feature",
      "geometry": {
        "type": "Point",
        "coordinates": [13.39108, 52.50319]
      },
      "properties": {
         "id": "pmb482",
         "title": "Friedrichstraße",
         "lat": "52.50319",
         "lon": "13.39108",
         "timestamp": ["1896-01-30"],
         "importance": "1"
      }
      }
  ]
}