{
  "type": "FeatureCollection",
  "features": [
    {
      "type": "Feature", 
      "geometry": {
        "type": "LineString", 
        "coordinates": [
            [16.372564182283, 48.201265597319], 
            [16.37312, 48.20122], 
            [16.373056, 48.208333], 
            [16.37778, 48.22583], 
            [16.363548, 48.216542], 
            [16.338015, 48.234046], 
            [16.35736, 48.21533]
          ]
      },
      "properties": {
        "name": "5. April 1897"
      }
    },
    {
      "type": "Feature",
      "geometry": {
        "type": "Point",
        "coordinates": [16.373056, 48.208333]
      },
      "properties": {
         "id": "pmb50",
         "title": "Wien",
         "lat": "48.208333",
         "lon": "16.373056",
         "timestamp": ["1897-04-05"],
         "importance": "1", 
        "wikipedia": "https://de.wikipedia.org/wiki/Wien", 
        "wikidata": "http://www.wikidata.org/entity/Q1741"
      }
      },
    {
      "type": "Feature",
      "geometry": {
        "type": "Point",
        "coordinates": [16.338015, 48.234046]
      },
      "properties": {
         "id": "pmb185644",
         "title": "Peregringasse 4",
         "lat": "48.234046",
         "lon": "16.338015",
         "timestamp": ["1897-04-05"],
         "importance": "1"
      }
      },
    {
      "type": "Feature",
      "geometry": {
        "type": "Point",
        "coordinates": [16.363548, 48.216542]
      },
      "properties": {
         "id": "pmb199530",
         "title": "Kolingasse 13",
         "lat": "48.216542",
         "lon": "16.363548",
         "timestamp": ["1897-04-05"],
         "importance": "1"
      }
      },
    {
      "type": "Feature",
      "geometry": {
        "type": "Point",
        "coordinates": [16.37312, 48.20122]
      },
      "properties": {
         "id": "pmb126",
         "title": "Hotel Imperial",
         "lat": "48.20122",
         "lon": "16.37312",
         "timestamp": ["1897-04-05"],
         "importance": "1"
      }
      },
    {
      "type": "Feature",
      "geometry": {
        "type": "Point",
        "coordinates": [16.37778, 48.22583]
      },
      "properties": {
         "id": "pmb124",
         "title": "Augarten",
         "lat": "48.22583",
         "lon": "16.37778",
         "timestamp": ["1897-04-05"],
         "importance": "1", 
        "wikipedia": "https://de.wikipedia.org/wiki/Augarten", 
        "wikidata": "http://www.wikidata.org/entity/Q143265"
      }
      },
    {
      "type": "Feature",
      "geometry": {
        "type": "Point",
        "coordinates": [16.372564182283, 48.201265597319]
      },
      "properties": {
         "id": "pmb516",
         "title": "Musikverein",
         "lat": "48.201265597319",
         "lon": "16.372564182283",
         "timestamp": ["1897-04-05"],
         "importance": "1"
      }
      },
    {
      "type": "Feature",
      "geometry": {
        "type": "Point",
        "coordinates": [16.35736, 48.21533]
      },
      "properties": {
         "id": "pmb168934",
         "title": "Frankgasse 1",
         "lat": "48.21533",
         "lon": "16.35736",
         "timestamp": ["1897-04-05"],
         "importance": "1"
      }
      }
  ]
}