{
  "type": "FeatureCollection",
  "features": [
    {
      "type": "Feature", 
      "geometry": {
        "type": "LineString", 
        "coordinates": [
            [16.24801, 48.08509], 
            [16.261108, 48.081286], 
            [16.27, 48.0925], 
            [16.373056, 48.208333], 
            [16.35736, 48.21533]
          ]
      },
      "properties": {
        "name": "25. März 1897"
      }
    },
    {
      "type": "Feature",
      "geometry": {
        "type": "Point",
        "coordinates": [16.373056, 48.208333]
      },
      "properties": {
         "id": "pmb50",
         "title": "Wien",
         "lat": "48.208333",
         "lon": "16.373056",
         "timestamp": ["1897-03-25"],
         "importance": "1", 
        "wikipedia": "https://de.wikipedia.org/wiki/Wien", 
        "wikidata": "http://www.wikidata.org/entity/Q1741"
      }
      },
    {
      "type": "Feature",
      "geometry": {
        "type": "Point",
        "coordinates": [16.27, 48.0925]
      },
      "properties": {
         "id": "pmb91145",
         "title": "Burg Liechtenstein",
         "lat": "48.0925",
         "lon": "16.27",
         "timestamp": ["1897-03-25"],
         "importance": "1"
      }
      },
    {
      "type": "Feature",
      "geometry": {
        "type": "Point",
        "coordinates": [16.261108, 48.081286]
      },
      "properties": {
         "id": "pmb625",
         "title": "Zum goldenen Stern",
         "lat": "48.081286",
         "lon": "16.261108",
         "timestamp": ["1897-03-25"],
         "importance": "1"
      }
      },
    {
      "type": "Feature",
      "geometry": {
        "type": "Point",
        "coordinates": [16.24801, 48.08509]
      },
      "properties": {
         "id": "pmb44413",
         "title": "Brühl",
         "lat": "48.08509",
         "lon": "16.24801",
         "timestamp": ["1897-03-25"],
         "importance": "1"
      }
      },
    {
      "type": "Feature",
      "geometry": {
        "type": "Point",
        "coordinates": [16.35736, 48.21533]
      },
      "properties": {
         "id": "pmb168934",
         "title": "Frankgasse 1",
         "lat": "48.21533",
         "lon": "16.35736",
         "timestamp": ["1897-03-25"],
         "importance": "1"
      }
      }
  ]
}