{
  "type": "FeatureCollection",
  "features": [
    {
      "type": "Feature", 
      "geometry": {
        "type": "LineString", 
        "coordinates": [
            [16.35736, 48.21533], 
            [16.348055761094, 48.212122153542], 
            [16.347528, 48.211968], 
            [16.495, 48.165833333333], 
            [16.35468, 48.27475], 
            [16.359721, 48.216481]
          ]
      },
      "properties": {
        "name": "14. Mai 1898"
      }
    },
    {
      "type": "Feature",
      "geometry": {
        "type": "Point",
        "coordinates": [16.495, 48.165833333333]
      },
      "properties": {
         "id": "pmb200745",
         "title": "Praterspitz",
         "lat": "48.165833333333",
         "lon": "16.495",
         "timestamp": ["1898-05-14"],
         "importance": "1", 
        "wikidata": "http://www.wikidata.org/entity/Q21864925"
      }
      },
    {
      "type": "Feature",
      "geometry": {
        "type": "Point",
        "coordinates": [16.359721, 48.216481]
      },
      "properties": {
         "id": "pmb184975",
         "title": "Alt Pilsenetzer Bierhalle",
         "lat": "48.216481",
         "lon": "16.359721",
         "timestamp": ["1898-05-14"],
         "importance": "1"
      }
      },
    {
      "type": "Feature",
      "geometry": {
        "type": "Point",
        "coordinates": [16.35736, 48.21533]
      },
      "properties": {
         "id": "pmb168934",
         "title": "Frankgasse 1",
         "lat": "48.21533",
         "lon": "16.35736",
         "timestamp": ["1898-05-14"],
         "importance": "1"
      }
      },
    {
      "type": "Feature",
      "geometry": {
        "type": "Point",
        "coordinates": [16.347528, 48.211968]
      },
      "properties": {
         "id": "pmb200766",
         "title": "Tempel Florianigasse",
         "lat": "48.211968",
         "lon": "16.347528",
         "timestamp": ["1898-05-14"],
         "importance": "1", 
        "wikidata": "http://www.wikidata.org/entity/Q130634243"
      }
      },
    {
      "type": "Feature",
      "geometry": {
        "type": "Point",
        "coordinates": [16.348055761094, 48.212122153542]
      },
      "properties": {
         "id": "pmb818",
         "title": "Florianigasse",
         "lat": "48.212122153542",
         "lon": "16.348055761094",
         "timestamp": ["1898-05-14"],
         "importance": "1"
      }
      },
    {
      "type": "Feature",
      "geometry": {
        "type": "Point",
        "coordinates": [16.35468, 48.27475]
      },
      "properties": {
         "id": "pmb90969",
         "title": "Kahlenbergerdorf",
         "lat": "48.27475",
         "lon": "16.35468",
         "timestamp": ["1898-05-14"],
         "importance": "1"
      }
      }
  ]
}