{
  "type": "FeatureCollection",
  "features": [
    {
      "type": "Feature", 
      "geometry": {
        "type": "LineString", 
        "coordinates": [
            [12.82727, 47.22729], 
            [13.140375, 47.119503], 
            [13.13467, 47.11547], 
            [15.28333, 47.41667], 
            [13.02265, 47.28075]
          ]
      },
      "properties": {
        "name": "20. Juli 1898"
      }
    },
    {
      "type": "Feature",
      "geometry": {
        "type": "Point",
        "coordinates": [12.82727, 47.22729]
      },
      "properties": {
         "id": "pmb34194",
         "title": "Fusch an der Großglocknerstraße",
         "lat": "47.22729",
         "lon": "12.82727",
         "timestamp": ["1898-07-20"],
         "importance": "1"
      }
      },
    {
      "type": "Feature",
      "geometry": {
        "type": "Point",
        "coordinates": [13.02265, 47.28075]
      },
      "properties": {
         "id": "pmb91131",
         "title": "Lend",
         "lat": "47.28075",
         "lon": "13.02265",
         "timestamp": ["1898-07-20"],
         "importance": "1"
      }
      },
    {
      "type": "Feature",
      "geometry": {
        "type": "Point",
        "coordinates": [13.13467, 47.11547]
      },
      "properties": {
         "id": "pmb521",
         "title": "Bad Gastein",
         "lat": "47.11547",
         "lon": "13.13467",
         "timestamp": ["1898-07-20"],
         "importance": "1", 
        "wikipedia": "https://de.wikipedia.org/wiki/Bad_Gastein", 
        "wikidata": "http://www.wikidata.org/entity/Q254835"
      }
      },
    {
      "type": "Feature",
      "geometry": {
        "type": "Point",
        "coordinates": [15.28333, 47.41667]
      },
      "properties": {
         "id": "pmb840",
         "title": "Bruck an der Mur",
         "lat": "47.41667",
         "lon": "15.28333",
         "timestamp": ["1898-07-20"],
         "importance": "1", 
        "wikipedia": "https://de.wikipedia.org/wiki/Bruck_an_der_Mur", 
        "wikidata": "http://www.wikidata.org/entity/Q259893"
      }
      },
    {
      "type": "Feature",
      "geometry": {
        "type": "Point",
        "coordinates": [13.140375, 47.119503]
      },
      "properties": {
         "id": "pmb34014",
         "title": "Villa Dr. Wassing",
         "lat": "47.119503",
         "lon": "13.140375",
         "timestamp": ["1898-07-20"],
         "importance": "1"
      }
      }
  ]
}