{
  "type": "FeatureCollection",
  "features": [
    {
      "type": "Feature", 
      "geometry": {
        "type": "LineString", 
        "coordinates": [
            [16.369693, 48.204446], 
            [16.373056, 48.208333], 
            [16.3633523, 48.211807], 
            [16.35736, 48.21533], 
            [16.361139, 48.210333]
          ]
      },
      "properties": {
        "name": "4. Februar 1899"
      }
    },
    {
      "type": "Feature",
      "geometry": {
        "type": "Point",
        "coordinates": [16.373056, 48.208333]
      },
      "properties": {
         "id": "pmb50",
         "title": "Wien",
         "lat": "48.208333",
         "lon": "16.373056",
         "timestamp": ["1899-02-04"],
         "importance": "1", 
        "wikipedia": "https://de.wikipedia.org/wiki/Wien", 
        "wikidata": "http://www.wikidata.org/entity/Q1741"
      }
      },
    {
      "type": "Feature",
      "geometry": {
        "type": "Point",
        "coordinates": [16.361139, 48.210333]
      },
      "properties": {
         "id": "pmb14",
         "title": "Burgtheater",
         "lat": "48.210333",
         "lon": "16.361139",
         "timestamp": ["1899-02-04"],
         "importance": "1"
      }
      },
    {
      "type": "Feature",
      "geometry": {
        "type": "Point",
        "coordinates": [16.3633523, 48.211807]
      },
      "properties": {
         "id": "pmb1106",
         "title": "Residenzhotel",
         "lat": "48.211807",
         "lon": "16.3633523",
         "timestamp": ["1899-02-04"],
         "importance": "1"
      }
      },
    {
      "type": "Feature",
      "geometry": {
        "type": "Point",
        "coordinates": [16.369693, 48.204446]
      },
      "properties": {
         "id": "pmb199375",
         "title": "Maysedergasse 4",
         "lat": "48.204446",
         "lon": "16.369693",
         "timestamp": ["1899-02-04"],
         "importance": "1"
      }
      },
    {
      "type": "Feature",
      "geometry": {
        "type": "Point",
        "coordinates": [16.35736, 48.21533]
      },
      "properties": {
         "id": "pmb168934",
         "title": "Frankgasse 1",
         "lat": "48.21533",
         "lon": "16.35736",
         "timestamp": ["1899-02-04"],
         "importance": "1"
      }
      }
  ]
}