{
  "type": "FeatureCollection",
  "features": [
    {
      "type": "Feature",
      "geometry": {
        "type": "Point",
        "coordinates": [16.373056, 48.208333]
      },
      "properties": {
         "id": "pmb50",
         "title": "Wien",
         "lat": "48.208333",
         "lon": "16.373056",
         "timestamp": ["1901-05-01", "1901-05-02", "1901-05-03", "1901-05-04", "1901-05-05", "1901-05-06", "1901-05-07", "1901-05-08", "1901-05-09", "1901-05-10", "1901-05-11", "1901-05-12", "1901-05-13", "1901-05-14", "1901-05-15", "1901-05-16", "1901-05-17", "1901-05-18", "1901-05-19", "1901-05-20", "1901-05-21", "1901-05-22", "1901-05-23", "1901-05-24", "1901-05-25", "1901-05-26", "1901-05-27", "1901-05-28", "1901-05-30"],
         "importance": "29", 
        "wikipedia": "https://de.wikipedia.org/wiki/Wien", 
        "wikidata": "http://www.wikidata.org/entity/Q1741"
      }
      }, 
    {
      "type": "Feature",
      "geometry": {
        "type": "Point",
        "coordinates": [16.384444, 48.215]
      },
      "properties": {
         "id": "pmb118",
         "title": "Carl-Theater",
         "lat": "48.215",
         "lon": "16.384444",
         "timestamp": ["1901-05-06"],
         "importance": "1", 
        "wikipedia": "https://de.wikipedia.org/wiki/Carltheater", 
        "wikidata": "http://www.wikidata.org/entity/Q877699"
      }
      }, 
    {
      "type": "Feature",
      "geometry": {
        "type": "Point",
        "coordinates": [16.361139, 48.210333]
      },
      "properties": {
         "id": "pmb14",
         "title": "Burgtheater",
         "lat": "48.210333",
         "lon": "16.361139",
         "timestamp": ["1901-05-12"],
         "importance": "1"
      }
      }, 
    {
      "type": "Feature",
      "geometry": {
        "type": "Point",
        "coordinates": [16.299116267833, 48.230916826952]
      },
      "properties": {
         "id": "pmb499",
         "title": "Dornbach",
         "lat": "48.230916826952",
         "lon": "16.299116267833",
         "timestamp": ["1901-05-05", "1901-05-28"],
         "importance": "2"
      }
      }, 
    {
      "type": "Feature",
      "geometry": {
        "type": "Point",
        "coordinates": [16.32522, 48.30521]
      },
      "properties": {
         "id": "pmb865",
         "title": "Klosterneuburg",
         "lat": "48.30521",
         "lon": "16.32522",
         "timestamp": ["1901-05-01", "1901-05-03"],
         "importance": "2", 
        "wikipedia": "https://de.wikipedia.org/wiki/Klosterneuburg", 
        "wikidata": "http://www.wikidata.org/entity/Q487522"
      }
      }, 
    {
      "type": "Feature",
      "geometry": {
        "type": "Point",
        "coordinates": [16.24801, 48.08509]
      },
      "properties": {
         "id": "pmb44413",
         "title": "Br端hl",
         "lat": "48.08509",
         "lon": "16.24801",
         "timestamp": ["1901-05-20"],
         "importance": "1"
      }
      }, 
    {
      "type": "Feature",
      "geometry": {
        "type": "Point",
        "coordinates": [16.29101, 48.17547]
      },
      "properties": {
         "id": "pmb63",
         "title": "XIII., Hietzing",
         "lat": "48.17547",
         "lon": "16.29101",
         "timestamp": ["1901-05-08", "1901-05-20", "1901-05-29"],
         "importance": "3", 
        "wikipedia": "https://de.wikipedia.org/wiki/Hietzing", 
        "wikidata": "http://www.wikidata.org/entity/Q636910"
      }
      }, 
    {
      "type": "Feature",
      "geometry": {
        "type": "Point",
        "coordinates": [16.16265, 48.19512]
      },
      "properties": {
         "id": "pmb39792",
         "title": "Purkersdorf",
         "lat": "48.19512",
         "lon": "16.16265",
         "timestamp": ["1901-05-04"],
         "importance": "1", 
        "wikipedia": "https://de.wikipedia.org/wiki/Purkersdorf", 
        "wikidata": "http://www.wikidata.org/entity/Q590620"
      }
      }, 
    {
      "type": "Feature",
      "geometry": {
        "type": "Point",
        "coordinates": [16.276509500872, 48.241960480337]
      },
      "properties": {
         "id": "pmb176",
         "title": "Schwarzenbergpark",
         "lat": "48.241960480337",
         "lon": "16.276509500872",
         "timestamp": ["1901-05-27", "1901-05-28"],
         "importance": "2", 
        "wikipedia": "https://de.wikipedia.org/wiki/Schwarzenbergpark", 
        "wikidata": "http://www.wikidata.org/entity/Q2253835"
      }
      }, 
    {
      "type": "Feature",
      "geometry": {
        "type": "Point",
        "coordinates": [16.24809, 48.08611]
      },
      "properties": {
         "id": "pmb75",
         "title": "Hinterbr端hl",
         "lat": "48.08611",
         "lon": "16.24809",
         "timestamp": ["1901-05-29", "1901-05-30", "1901-05-31"],
         "importance": "3", 
        "wikipedia": "https://de.wikipedia.org/wiki/Hinterbr%C3%BChl", 
        "wikidata": "http://www.wikidata.org/entity/Q664735"
      }
      }, 
    {
      "type": "Feature",
      "geometry": {
        "type": "Point",
        "coordinates": [16.30011, 48.32932]
      },
      "properties": {
         "id": "pmb91077",
         "title": "Kritzendorf",
         "lat": "48.32932",
         "lon": "16.30011",
         "timestamp": ["1901-05-01"],
         "importance": "1"
      }
      }, 
    {
      "type": "Feature",
      "geometry": {
        "type": "Point",
        "coordinates": [16.43138888888889, 48.155833333333334]
      },
      "properties": {
         "id": "pmb192349",
         "title": "Israelitischer Friedhof",
         "lat": "48.155833333333334",
         "lon": "16.43138888888889",
         "timestamp": ["1901-05-02"],
         "importance": "1", 
        "wikidata": "http://www.wikidata.org/entity/Q68752772"
      }
      }, 
    {
      "type": "Feature",
      "geometry": {
        "type": "Point",
        "coordinates": [16.26269, 48.24616]
      },
      "properties": {
         "id": "pmb456",
         "title": "Rohrerh端tte",
         "lat": "48.24616",
         "lon": "16.26269",
         "timestamp": ["1901-05-15"],
         "importance": "1"
      }
      }, 
    {
      "type": "Feature",
      "geometry": {
        "type": "Point",
        "coordinates": [16.35736, 48.21533]
      },
      "properties": {
         "id": "pmb168934",
         "title": "Frankgasse 1",
         "lat": "48.21533",
         "lon": "16.35736",
         "timestamp": ["1901-05-01", "1901-05-02", "1901-05-03", "1901-05-04", "1901-05-05", "1901-05-06", "1901-05-07", "1901-05-08", "1901-05-09", "1901-05-10", "1901-05-11", "1901-05-12", "1901-05-13", "1901-05-14", "1901-05-15", "1901-05-16", "1901-05-17", "1901-05-18", "1901-05-19", "1901-05-20", "1901-05-21", "1901-05-22", "1901-05-23", "1901-05-24", "1901-05-25", "1901-05-26", "1901-05-27", "1901-05-28", "1901-05-29", "1901-05-30"],
         "importance": "30"
      }
      }, 
    {
      "type": "Feature",
      "geometry": {
        "type": "Point",
        "coordinates": [16.365508, 48.200364]
      },
      "properties": {
         "id": "pmb7",
         "title": "Secession",
         "lat": "48.200364",
         "lon": "16.365508",
         "timestamp": ["1901-05-06"],
         "importance": "1", 
        "wikipedia": "https://de.wikipedia.org/wiki/Wiener_Secessionsgeb%C3%A4ude", 
        "wikidata": "http://www.wikidata.org/entity/Q265129"
      }
      }, 
    {
      "type": "Feature",
      "geometry": {
        "type": "Point",
        "coordinates": [16.292851, 48.185508]
      },
      "properties": {
         "id": "pmb231173",
         "title": "Sanatorium Offer",
         "lat": "48.185508",
         "lon": "16.292851",
         "timestamp": ["1901-05-08"],
         "importance": "1", 
        "wikidata": "http://www.wikidata.org/entity/Q130976466"
      }
      }, 
    {
      "type": "Feature",
      "geometry": {
        "type": "Point",
        "coordinates": [16.362974, 48.220897]
      },
      "properties": {
         "id": "pmb231302",
         "title": "Gr端nentorgasse 16",
         "lat": "48.220897",
         "lon": "16.362974",
         "timestamp": ["1901-05-01", "1901-05-02", "1901-05-10", "1901-05-11", "1901-05-12", "1901-05-13", "1901-05-14", "1901-05-15", "1901-05-16", "1901-05-18", "1901-05-19", "1901-05-20", "1901-05-22", "1901-05-23", "1901-05-24", "1901-05-26", "1901-05-27", "1901-05-28", "1901-05-29"],
         "importance": "19"
      }
      }, 
    {
      "type": "Feature",
      "geometry": {
        "type": "Point",
        "coordinates": [16.2911, 48.2553]
      },
      "properties": {
         "id": "pmb242",
         "title": "Salmannsdorf",
         "lat": "48.2553",
         "lon": "16.2911",
         "timestamp": ["1901-05-05", "1901-05-14", "1901-05-15"],
         "importance": "3", 
        "wikipedia": "https://de.wikipedia.org/wiki/Salmannsdorf_(Wien)", 
        "wikidata": "http://www.wikidata.org/entity/Q1255079"
      }
      }, 
    {
      "type": "Feature",
      "geometry": {
        "type": "Point",
        "coordinates": [16.293147561818, 48.251927827778]
      },
      "properties": {
         "id": "pmb540",
         "title": "Hameau",
         "lat": "48.251927827778",
         "lon": "16.293147561818",
         "timestamp": ["1901-05-05"],
         "importance": "1", 
        "wikipedia": "https://de.wikipedia.org/wiki/Hameau_(Wien)", 
        "wikidata": "http://www.wikidata.org/entity/Q21874781"
      }
      }
  ]
}