{
  "type": "FeatureCollection",
  "features": [
    {
      "type": "Feature", 
      "geometry": {
        "type": "LineString", 
        "coordinates": [
            [11.51292, 46.62279], 
            [11.50771, 46.6134], 
            [11.53088, 46.59712], 
            [11.65598, 46.71503], 
            [11.63749, 46.73901]
          ]
      },
      "properties": {
        "name": "16. Juli 1901"
      }
    },
    {
      "type": "Feature",
      "geometry": {
        "type": "Point",
        "coordinates": [11.63749, 46.73901]
      },
      "properties": {
         "id": "pmb946",
         "title": "Vahrn",
         "lat": "46.73901",
         "lon": "11.63749",
         "timestamp": ["1901-07-16"],
         "importance": "1"
      }
      },
    {
      "type": "Feature",
      "geometry": {
        "type": "Point",
        "coordinates": [11.65598, 46.71503]
      },
      "properties": {
         "id": "pmb43040",
         "title": "Brixen",
         "lat": "46.71503",
         "lon": "11.65598",
         "timestamp": ["1901-07-16"],
         "importance": "1"
      }
      },
    {
      "type": "Feature",
      "geometry": {
        "type": "Point",
        "coordinates": [11.53088, 46.59712]
      },
      "properties": {
         "id": "pmb40343",
         "title": "Ponte Gardena",
         "lat": "46.59712",
         "lon": "11.53088",
         "timestamp": ["1901-07-16"],
         "importance": "1", 
        "wikipedia": "https://de.wikipedia.org/wiki/Waidbruck", 
        "wikidata": "http://www.wikidata.org/entity/Q474145"
      }
      },
    {
      "type": "Feature",
      "geometry": {
        "type": "Point",
        "coordinates": [11.51292, 46.62279]
      },
      "properties": {
         "id": "pmb90151",
         "title": "Bad Dreikirchen",
         "lat": "46.62279",
         "lon": "11.51292",
         "timestamp": ["1901-07-16"],
         "importance": "1"
      }
      },
    {
      "type": "Feature",
      "geometry": {
        "type": "Point",
        "coordinates": [11.50771, 46.6134]
      },
      "properties": {
         "id": "pmb231589",
         "title": "Berghaus Briol",
         "lat": "46.6134",
         "lon": "11.50771",
         "timestamp": ["1901-07-16"],
         "importance": "1"
      }
      }
  ]
}