{
  "type": "FeatureCollection",
  "features": [
    {
      "type": "Feature", 
      "geometry": {
        "type": "LineString", 
        "coordinates": [
            [11.51292, 46.62279], 
            [11.50771, 46.6134], 
            [11.53088, 46.59712], 
            [11.65598, 46.71503], 
            [11.63749, 46.73901]
          ]
      },
      "properties": {
        "name": "16. Juli 1901"
      }
    },
    {
      "type": "Feature",
      "geometry": {
        "type": "Point",
        "coordinates": [
          11.63749, 46.73901
        ]
      },
      "properties": {
        "title": "Vahrn",
        "timestamp": ["1901-07-16"],
        "id": "pmb946"
      }
      },
    {
      "type": "Feature",
      "geometry": {
        "type": "Point",
        "coordinates": [
          11.65598, 46.71503
        ]
      },
      "properties": {
        "title": "Brixen",
        "timestamp": ["1901-07-16"],
        "id": "pmb43040"
      }
      },
    {
      "type": "Feature",
      "geometry": {
        "type": "Point",
        "coordinates": [
          11.53088, 46.59712
        ]
      },
      "properties": {
        "title": "Ponte Gardena",
        "timestamp": ["1901-07-16"],
        "id": "pmb40343", 
        "wikipedia": "https://de.wikipedia.org/wiki/Waidbruck"
      }
      },
    {
      "type": "Feature",
      "geometry": {
        "type": "Point",
        "coordinates": [
          11.51292, 46.62279
        ]
      },
      "properties": {
        "title": "Bad Dreikirchen",
        "timestamp": ["1901-07-16"],
        "id": "pmb90151"
      }
      },
    {
      "type": "Feature",
      "geometry": {
        "type": "Point",
        "coordinates": [
          11.50771, 46.6134
        ]
      },
      "properties": {
        "title": "Berghaus Briol",
        "timestamp": ["1901-07-16"],
        "id": "pmb231589"
      }
      }
  ]
}