{
  "type": "FeatureCollection",
  "features": [
    {
      "type": "Feature", 
      "geometry": {
        "type": "LineString", 
        "coordinates": [
            [16.257741, 48.139276], 
            [16.255556, 48.133611], 
            [16.24924, 48.08736], 
            [16.375135, 48.204532], 
            [16.35736, 48.21533]
          ]
      },
      "properties": {
        "name": "21. August 1902"
      }
    },
    {
      "type": "Feature",
      "geometry": {
        "type": "Point",
        "coordinates": [16.255556, 48.133611]
      },
      "properties": {
         "id": "pmb40297",
         "title": "Hofmannsthal-Schlössl",
         "lat": "48.133611",
         "lon": "16.255556",
         "timestamp": ["1902-08-21"],
         "importance": "1", 
        "wikipedia": "https://de.wikipedia.org/wiki/Hofmannsthal-Schl%C3%B6ssl", 
        "wikidata": "http://www.wikidata.org/entity/Q1623184"
      }
      },
    {
      "type": "Feature",
      "geometry": {
        "type": "Point",
        "coordinates": [16.257741, 48.139276]
      },
      "properties": {
         "id": "pmb231810",
         "title": "Willergasse 2",
         "lat": "48.139276",
         "lon": "16.257741",
         "timestamp": ["1902-08-21"],
         "importance": "1"
      }
      },
    {
      "type": "Feature",
      "geometry": {
        "type": "Point",
        "coordinates": [16.375135, 48.204532]
      },
      "properties": {
         "id": "pmb199692",
         "title": "Schellinggasse 6",
         "lat": "48.204532",
         "lon": "16.375135",
         "timestamp": ["1902-08-21"],
         "importance": "1"
      }
      },
    {
      "type": "Feature",
      "geometry": {
        "type": "Point",
        "coordinates": [16.35736, 48.21533]
      },
      "properties": {
         "id": "pmb168934",
         "title": "Frankgasse 1",
         "lat": "48.21533",
         "lon": "16.35736",
         "timestamp": ["1902-08-21"],
         "importance": "1"
      }
      },
    {
      "type": "Feature",
      "geometry": {
        "type": "Point",
        "coordinates": [16.24924, 48.08736]
      },
      "properties": {
         "id": "pmb145165",
         "title": "Hauptstraße 56",
         "lat": "48.08736",
         "lon": "16.24924",
         "timestamp": ["1902-08-21"],
         "importance": "1"
      }
      }
  ]
}