{
  "type": "FeatureCollection",
  "features": [
    {
      "type": "Feature", 
      "geometry": {
        "type": "LineString", 
        "coordinates": [
            [16.385001, 48.1982], 
            [16.366201, 48.210922], 
            [16.363259, 48.214815], 
            [16.335264, 48.228877], 
            [16.35736, 48.21533]
          ]
      },
      "properties": {
        "name": "21. März 1903"
      }
    },
    {
      "type": "Feature",
      "geometry": {
        "type": "Point",
        "coordinates": [16.335264, 48.228877]
      },
      "properties": {
         "id": "pmb232166",
         "title": "Gentzgasse 110",
         "lat": "48.228877",
         "lon": "16.335264",
         "timestamp": ["1903-03-21"],
         "importance": "1"
      }
      },
    {
      "type": "Feature",
      "geometry": {
        "type": "Point",
        "coordinates": [16.363259, 48.214815]
      },
      "properties": {
         "id": "pmb232566",
         "title": "Heßgasse 7",
         "lat": "48.214815",
         "lon": "16.363259",
         "timestamp": ["1903-03-21"],
         "importance": "1"
      }
      },
    {
      "type": "Feature",
      "geometry": {
        "type": "Point",
        "coordinates": [16.366201, 48.210922]
      },
      "properties": {
         "id": "pmb207076",
         "title": "Strauchgasse 1",
         "lat": "48.210922",
         "lon": "16.366201",
         "timestamp": ["1903-03-21"],
         "importance": "1"
      }
      },
    {
      "type": "Feature",
      "geometry": {
        "type": "Point",
        "coordinates": [16.385001, 48.1982]
      },
      "properties": {
         "id": "pmb206977",
         "title": "Strohgasse 11",
         "lat": "48.1982",
         "lon": "16.385001",
         "timestamp": ["1903-03-21"],
         "importance": "1"
      }
      },
    {
      "type": "Feature",
      "geometry": {
        "type": "Point",
        "coordinates": [16.35736, 48.21533]
      },
      "properties": {
         "id": "pmb168934",
         "title": "Frankgasse 1",
         "lat": "48.21533",
         "lon": "16.35736",
         "timestamp": ["1903-03-21"],
         "importance": "1"
      }
      }
  ]
}