{
  "type": "FeatureCollection",
  "features": [
    {
      "type": "Feature", 
      "geometry": {
        "type": "LineString", 
        "coordinates": [
            [16.385001, 48.1982], 
            [16.366201, 48.210922], 
            [16.363259, 48.214815], 
            [16.335264, 48.228877], 
            [16.35736, 48.21533]
          ]
      },
      "properties": {
        "name": "21. März 1903"
      }
    },
    {
      "type": "Feature",
      "geometry": {
        "type": "Point",
        "coordinates": [
          16.335264, 48.228877
        ]
      },
      "properties": {
        "title": "Gentzgasse 110",
        "timestamp": ["1903-03-21"],
        "id": "https://pmb.acdh.oeaw.ac.at/entity/pmb232166/"
      }
      },
    {
      "type": "Feature",
      "geometry": {
        "type": "Point",
        "coordinates": [
          16.363259, 48.214815
        ]
      },
      "properties": {
        "title": "Heßgasse 7",
        "timestamp": ["1903-03-21"],
        "id": "https://pmb.acdh.oeaw.ac.at/entity/pmb232566/"
      }
      },
    {
      "type": "Feature",
      "geometry": {
        "type": "Point",
        "coordinates": [
          16.366201, 48.210922
        ]
      },
      "properties": {
        "title": "Strauchgasse 1",
        "timestamp": ["1903-03-21"],
        "id": "https://pmb.acdh.oeaw.ac.at/entity/pmb207076/"
      }
      },
    {
      "type": "Feature",
      "geometry": {
        "type": "Point",
        "coordinates": [
          16.385001, 48.1982
        ]
      },
      "properties": {
        "title": "Strohgasse 11",
        "timestamp": ["1903-03-21"],
        "id": "https://pmb.acdh.oeaw.ac.at/entity/pmb206977/"
      }
      },
    {
      "type": "Feature",
      "geometry": {
        "type": "Point",
        "coordinates": [
          16.35736, 48.21533
        ]
      },
      "properties": {
        "title": "Frankgasse 1",
        "timestamp": ["1903-03-21"],
        "id": "https://pmb.acdh.oeaw.ac.at/entity/pmb168934/"
      }
      }
  ]
}