{
  "type": "FeatureCollection",
  "features": [
    {
      "type": "Feature", 
      "geometry": {
        "type": "LineString", 
        "coordinates": [
            [16.35736, 48.21533], 
            [16.375135, 48.204532], 
            [16.371678, 48.211296], 
            [16.33472, 48.2304], 
            [16.335264, 48.228877]
          ]
      },
      "properties": {
        "name": "17. Juni 1903"
      }
    },
    {
      "type": "Feature",
      "geometry": {
        "type": "Point",
        "coordinates": [16.375135, 48.204532]
      },
      "properties": {
         "id": "pmb199692",
         "title": "Schellinggasse 6",
         "lat": "48.204532",
         "lon": "16.375135",
         "timestamp": ["1903-06-17"],
         "importance": "1"
      }
      },
    {
      "type": "Feature",
      "geometry": {
        "type": "Point",
        "coordinates": [16.35736, 48.21533]
      },
      "properties": {
         "id": "pmb168934",
         "title": "Frankgasse 1",
         "lat": "48.21533",
         "lon": "16.35736",
         "timestamp": ["1903-06-17"],
         "importance": "1"
      }
      },
    {
      "type": "Feature",
      "geometry": {
        "type": "Point",
        "coordinates": [16.33472, 48.2304]
      },
      "properties": {
         "id": "pmb168940",
         "title": "Edmund-Weiß-Gasse 7",
         "lat": "48.2304",
         "lon": "16.33472",
         "timestamp": ["1903-06-17"],
         "importance": "1"
      }
      },
    {
      "type": "Feature",
      "geometry": {
        "type": "Point",
        "coordinates": [16.335264, 48.228877]
      },
      "properties": {
         "id": "pmb232166",
         "title": "Gentzgasse 110",
         "lat": "48.228877",
         "lon": "16.335264",
         "timestamp": ["1903-06-17"],
         "importance": "1"
      }
      },
    {
      "type": "Feature",
      "geometry": {
        "type": "Point",
        "coordinates": [16.371678, 48.211296]
      },
      "properties": {
         "id": "pmb232729",
         "title": "Wipplingerstraße 1",
         "lat": "48.211296",
         "lon": "16.371678",
         "timestamp": ["1903-06-17"],
         "importance": "1"
      }
      }
  ]
}