{
  "type": "FeatureCollection",
  "features": [
    {
      "type": "Feature", 
      "geometry": {
        "type": "LineString", 
        "coordinates": [
            [16.375, 48.205139], 
            [16.375135, 48.204532], 
            [16.430054, 48.194558], 
            [16.39467, 48.21699], 
            [16.362746, 48.21997], 
            [16.363924, 48.217491], 
            [16.35736, 48.21533]
          ]
      },
      "properties": {
        "name": "25. Mai 1903"
      }
    },
    {
      "type": "Feature",
      "geometry": {
        "type": "Point",
        "coordinates": [16.39467, 48.21699]
      },
      "properties": {
         "id": "pmb422",
         "title": "Venedig in Wien",
         "lat": "48.21699",
         "lon": "16.39467",
         "timestamp": ["1903-05-25"],
         "importance": "1", 
        "wikipedia": "https://de.wikipedia.org/wiki/Venedig_in_Wien", 
        "wiengeschichtewiki": "https://www.geschichtewiki.wien.gv.at/Venedig_in_Wien", 
        "wikidata": "http://www.wikidata.org/entity/Q2512799"
      }
      },
    {
      "type": "Feature",
      "geometry": {
        "type": "Point",
        "coordinates": [16.430054, 48.194558]
      },
      "properties": {
         "id": "pmb8",
         "title": "Prater",
         "lat": "48.194558",
         "lon": "16.430054",
         "timestamp": ["1903-05-25"],
         "importance": "1", 
        "wikipedia": "https://de.wikipedia.org/wiki/Wiener_Prater", 
        "wikidata": "http://www.wikidata.org/entity/Q264752"
      }
      },
    {
      "type": "Feature",
      "geometry": {
        "type": "Point",
        "coordinates": [16.375, 48.205139]
      },
      "properties": {
         "id": "pmb19",
         "title": "Ronacher",
         "lat": "48.205139",
         "lon": "16.375",
         "timestamp": ["1903-05-25"],
         "importance": "1", 
        "wikipedia": "https://de.wikipedia.org/wiki/Ronacher", 
        "wikidata": "http://www.wikidata.org/entity/Q1244587"
      }
      },
    {
      "type": "Feature",
      "geometry": {
        "type": "Point",
        "coordinates": [16.375135, 48.204532]
      },
      "properties": {
         "id": "pmb199692",
         "title": "Schellinggasse 6",
         "lat": "48.204532",
         "lon": "16.375135",
         "timestamp": ["1903-05-25"],
         "importance": "1"
      }
      },
    {
      "type": "Feature",
      "geometry": {
        "type": "Point",
        "coordinates": [16.363924, 48.217491]
      },
      "properties": {
         "id": "pmb232348",
         "title": "Hörlgasse 15",
         "lat": "48.217491",
         "lon": "16.363924",
         "timestamp": ["1903-05-25"],
         "importance": "1"
      }
      },
    {
      "type": "Feature",
      "geometry": {
        "type": "Point",
        "coordinates": [16.362746, 48.21997]
      },
      "properties": {
         "id": "pmb231653",
         "title": "Müllnergasse 3",
         "lat": "48.21997",
         "lon": "16.362746",
         "timestamp": ["1903-05-25"],
         "importance": "1"
      }
      },
    {
      "type": "Feature",
      "geometry": {
        "type": "Point",
        "coordinates": [16.35736, 48.21533]
      },
      "properties": {
         "id": "pmb168934",
         "title": "Frankgasse 1",
         "lat": "48.21533",
         "lon": "16.35736",
         "timestamp": ["1903-05-25"],
         "importance": "1"
      }
      }
  ]
}