{
  "type": "FeatureCollection",
  "features": [
    {
      "type": "Feature", 
      "geometry": {
        "type": "LineString", 
        "coordinates": [
            [16.365508, 48.200364], 
            [16.372564182283, 48.201265597319], 
            [16.361349, 48.223406], 
            [16.35736, 48.21533], 
            [16.335264, 48.228877]
          ]
      },
      "properties": {
        "name": "5. Februar 1903"
      }
    },
    {
      "type": "Feature",
      "geometry": {
        "type": "Point",
        "coordinates": [16.361349, 48.223406]
      },
      "properties": {
         "id": "pmb231945",
         "title": "Porzellangasse 45",
         "lat": "48.223406",
         "lon": "16.361349",
         "timestamp": ["1903-02-05"],
         "importance": "1"
      }
      },
    {
      "type": "Feature",
      "geometry": {
        "type": "Point",
        "coordinates": [16.35736, 48.21533]
      },
      "properties": {
         "id": "pmb168934",
         "title": "Frankgasse 1",
         "lat": "48.21533",
         "lon": "16.35736",
         "timestamp": ["1903-02-05"],
         "importance": "1"
      }
      },
    {
      "type": "Feature",
      "geometry": {
        "type": "Point",
        "coordinates": [16.372564182283, 48.201265597319]
      },
      "properties": {
         "id": "pmb516",
         "title": "Musikverein",
         "lat": "48.201265597319",
         "lon": "16.372564182283",
         "timestamp": ["1903-02-05"],
         "importance": "1"
      }
      },
    {
      "type": "Feature",
      "geometry": {
        "type": "Point",
        "coordinates": [16.365508, 48.200364]
      },
      "properties": {
         "id": "pmb7",
         "title": "Secession",
         "lat": "48.200364",
         "lon": "16.365508",
         "timestamp": ["1903-02-05"],
         "importance": "1", 
        "wikipedia": "https://de.wikipedia.org/wiki/Wiener_Secessionsgeb%C3%A4ude", 
        "wikidata": "http://www.wikidata.org/entity/Q265129"
      }
      },
    {
      "type": "Feature",
      "geometry": {
        "type": "Point",
        "coordinates": [16.335264, 48.228877]
      },
      "properties": {
         "id": "pmb232166",
         "title": "Gentzgasse 110",
         "lat": "48.228877",
         "lon": "16.335264",
         "timestamp": ["1903-02-05"],
         "importance": "1"
      }
      }
  ]
}