{
  "type": "FeatureCollection",
  "features": [
    {
      "type": "Feature", 
      "geometry": {
        "type": "LineString", 
        "coordinates": [
            [16.30202, 48.18636], 
            [16.30202, 48.18636], 
            [16.29101, 48.17547], 
            [16.373056, 48.208333], 
            [16.370342, 48.211369], 
            [16.353908, 48.222789], 
            [16.33472, 48.2304]
          ]
      },
      "properties": {
        "name": "31. Oktober 1904"
      }
    },
    {
      "type": "Feature",
      "geometry": {
        "type": "Point",
        "coordinates": [16.373056, 48.208333]
      },
      "properties": {
         "id": "pmb50",
         "title": "Wien",
         "lat": "48.208333",
         "lon": "16.373056",
         "timestamp": ["1904-10-31"],
         "importance": "1", 
        "wikipedia": "https://de.wikipedia.org/wiki/Wien", 
        "wikidata": "http://www.wikidata.org/entity/Q1741"
      }
      },
    {
      "type": "Feature",
      "geometry": {
        "type": "Point",
        "coordinates": [16.30202, 48.18636]
      },
      "properties": {
         "id": "pmb304",
         "title": "Ottakringer Bräu",
         "lat": "48.18636",
         "lon": "16.30202",
         "timestamp": ["1904-10-31"],
         "importance": "1"
      }
      },
    {
      "type": "Feature",
      "geometry": {
        "type": "Point",
        "coordinates": [16.370342, 48.211369]
      },
      "properties": {
         "id": "pmb234548",
         "title": "Jordangasse 9",
         "lat": "48.211369",
         "lon": "16.370342",
         "timestamp": ["1904-10-31"],
         "importance": "1"
      }
      },
    {
      "type": "Feature",
      "geometry": {
        "type": "Point",
        "coordinates": [16.30202, 48.18636]
      },
      "properties": {
         "id": "pmb304",
         "title": "Ottakringer Bräu",
         "lat": "48.18636",
         "lon": "16.30202",
         "timestamp": ["1904-10-31"],
         "importance": "1"
      }
      },
    {
      "type": "Feature",
      "geometry": {
        "type": "Point",
        "coordinates": [16.353908, 48.222789]
      },
      "properties": {
         "id": "pmb236593",
         "title": "Nussdorfer Straße 4",
         "lat": "48.222789",
         "lon": "16.353908",
         "timestamp": ["1904-10-31"],
         "importance": "1"
      }
      },
    {
      "type": "Feature",
      "geometry": {
        "type": "Point",
        "coordinates": [16.29101, 48.17547]
      },
      "properties": {
         "id": "pmb63",
         "title": "XIII., Hietzing",
         "lat": "48.17547",
         "lon": "16.29101",
         "timestamp": ["1904-10-31"],
         "importance": "1", 
        "wikipedia": "https://de.wikipedia.org/wiki/Hietzing", 
        "wikidata": "http://www.wikidata.org/entity/Q636910"
      }
      },
    {
      "type": "Feature",
      "geometry": {
        "type": "Point",
        "coordinates": [16.33472, 48.2304]
      },
      "properties": {
         "id": "pmb168940",
         "title": "Edmund-Weiß-Gasse 7",
         "lat": "48.2304",
         "lon": "16.33472",
         "timestamp": ["1904-10-31"],
         "importance": "1"
      }
      }
  ]
}