{
  "type": "FeatureCollection",
  "features": [
    {
      "type": "Feature", 
      "geometry": {
        "type": "LineString", 
        "coordinates": [
            [16.373056, 48.208333], 
            [16.353571, 48.239999], 
            [16.333568462613, 48.235119783861], 
            [16.331527, 48.23428], 
            [16.33472, 48.2304]
          ]
      },
      "properties": {
        "name": "12. September 1905"
      }
    },
    {
      "type": "Feature",
      "geometry": {
        "type": "Point",
        "coordinates": [16.373056, 48.208333]
      },
      "properties": {
         "id": "pmb50",
         "title": "Wien",
         "lat": "48.208333",
         "lon": "16.373056",
         "timestamp": ["1905-09-12"],
         "importance": "1", 
        "wikipedia": "https://de.wikipedia.org/wiki/Wien", 
        "wikidata": "http://www.wikidata.org/entity/Q1741"
      }
      },
    {
      "type": "Feature",
      "geometry": {
        "type": "Point",
        "coordinates": [16.331527, 48.23428]
      },
      "properties": {
         "id": "pmb74",
         "title": "Restauration Türkenschanz-Park",
         "lat": "48.23428",
         "lon": "16.331527",
         "timestamp": ["1905-09-12"],
         "importance": "1"
      }
      },
    {
      "type": "Feature",
      "geometry": {
        "type": "Point",
        "coordinates": [16.333568462613, 48.235119783861]
      },
      "properties": {
         "id": "pmb113",
         "title": "Türkenschanzpark",
         "lat": "48.235119783861",
         "lon": "16.333568462613",
         "timestamp": ["1905-09-12"],
         "importance": "1"
      }
      },
    {
      "type": "Feature",
      "geometry": {
        "type": "Point",
        "coordinates": [16.33472, 48.2304]
      },
      "properties": {
         "id": "pmb168940",
         "title": "Edmund-Weiß-Gasse 7",
         "lat": "48.2304",
         "lon": "16.33472",
         "timestamp": ["1905-09-12"],
         "importance": "1"
      }
      },
    {
      "type": "Feature",
      "geometry": {
        "type": "Point",
        "coordinates": [16.353571, 48.239999]
      },
      "properties": {
         "id": "pmb231906",
         "title": "Dollinergasse 8",
         "lat": "48.239999",
         "lon": "16.353571",
         "timestamp": ["1905-09-12"],
         "importance": "1"
      }
      }
  ]
}