{
  "type": "FeatureCollection",
  "features": [
    {
      "type": "Feature", 
      "geometry": {
        "type": "LineString", 
        "coordinates": [
            [16.3731991, 48.1855867], 
            [16.358254, 48.216404], 
            [16.35736, 48.21533], 
            [16.356671, 48.214272], 
            [16.33472, 48.2304]
          ]
      },
      "properties": {
        "name": "18. März 1905"
      }
    },
    {
      "type": "Feature",
      "geometry": {
        "type": "Point",
        "coordinates": [
          16.35736, 48.21533
        ]
      },
      "properties": {
        "title": "Frankgasse 1",
        "timestamp": ["1905-03-18"],
        "id": "https://pmb.acdh.oeaw.ac.at/entity/pmb168934/"
      }
      },
    {
      "type": "Feature",
      "geometry": {
        "type": "Point",
        "coordinates": [
          16.358254, 48.216404
        ]
      },
      "properties": {
        "title": "Günthergasse 1",
        "timestamp": ["1905-03-18"],
        "id": "https://pmb.acdh.oeaw.ac.at/entity/pmb231658/"
      }
      },
    {
      "type": "Feature",
      "geometry": {
        "type": "Point",
        "coordinates": [
          16.356671, 48.214272
        ]
      },
      "properties": {
        "title": "Universitätsstraße 11",
        "timestamp": ["1905-03-18"],
        "id": "https://pmb.acdh.oeaw.ac.at/entity/pmb235068/"
      }
      },
    {
      "type": "Feature",
      "geometry": {
        "type": "Point",
        "coordinates": [
          16.3731991, 48.1855867
        ]
      },
      "properties": {
        "title": "Ostbahnhof [Wien]",
        "timestamp": ["1905-03-18"],
        "id": "https://pmb.acdh.oeaw.ac.at/entity/pmb60254/", 
        "wikipedia": "https://de.wikipedia.org/wiki/Wien_Ostbahnhof", 
        "wiengeschichtewiki": "https://www.geschichtewiki.wien.gv.at/Ostbahnhof"
      }
      },
    {
      "type": "Feature",
      "geometry": {
        "type": "Point",
        "coordinates": [
          16.33472, 48.2304
        ]
      },
      "properties": {
        "title": "Edmund-Weiß-Gasse 7",
        "timestamp": ["1905-03-18"],
        "id": "https://pmb.acdh.oeaw.ac.at/entity/pmb168940/"
      }
      }
  ]
}