{
  "type": "FeatureCollection",
  "features": [
    {
      "type": "Feature", 
      "geometry": {
        "type": "LineString", 
        "coordinates": [
            [16.28610371233, 48.233119188484], 
            [16.35736, 48.21533], 
            [16.33472, 48.2304], 
            [16.2911, 48.2553], 
            [16.300034240016, 48.246838181084]
          ]
      },
      "properties": {
        "name": "26. März 1905"
      }
    },
    {
      "type": "Feature",
      "geometry": {
        "type": "Point",
        "coordinates": [
          16.35736, 48.21533
        ]
      },
      "properties": {
        "title": "Frankgasse 1",
        "timestamp": ["1905-03-26"],
        "id": "pmb168934"
      }
      },
    {
      "type": "Feature",
      "geometry": {
        "type": "Point",
        "coordinates": [
          16.2911, 48.2553
        ]
      },
      "properties": {
        "title": "Salmannsdorf",
        "timestamp": ["1905-03-26"],
        "id": "pmb242", 
        "wikipedia": "https://de.wikipedia.org/wiki/Salmannsdorf_(Wien)"
      }
      },
    {
      "type": "Feature",
      "geometry": {
        "type": "Point",
        "coordinates": [
          16.33472, 48.2304
        ]
      },
      "properties": {
        "title": "Edmund-Weiß-Gasse 7",
        "timestamp": ["1905-03-26"],
        "id": "pmb168940"
      }
      },
    {
      "type": "Feature",
      "geometry": {
        "type": "Point",
        "coordinates": [
          16.300034240016, 48.246838181084
        ]
      },
      "properties": {
        "title": "Pötzleinsdorf",
        "timestamp": ["1905-03-26"],
        "id": "pmb169"
      }
      },
    {
      "type": "Feature",
      "geometry": {
        "type": "Point",
        "coordinates": [
          16.28610371233, 48.233119188484
        ]
      },
      "properties": {
        "title": "Neuwaldegg",
        "timestamp": ["1905-03-26"],
        "id": "pmb170"
      }
      }
  ]
}