{
  "type": "FeatureCollection",
  "features": [
    {
      "type": "Feature", 
      "geometry": {
        "type": "LineString", 
        "coordinates": [
            [16.283758, 48.1803], 
            [16.29101, 48.17547], 
            [16.3642, 48.19941], 
            [16.369495, 48.201427], 
            [16.373056, 48.208333], 
            [16.33472, 48.2304]
          ]
      },
      "properties": {
        "name": "20. Mai 1905"
      }
    },
    {
      "type": "Feature",
      "geometry": {
        "type": "Point",
        "coordinates": [16.373056, 48.208333]
      },
      "properties": {
         "id": "pmb50",
         "title": "Wien",
         "lat": "48.208333",
         "lon": "16.373056",
         "timestamp": ["1905-05-20"],
         "importance": "1", 
        "wikipedia": "https://de.wikipedia.org/wiki/Wien", 
        "wikidata": "http://www.wikidata.org/entity/Q1741"
      }
      },
    {
      "type": "Feature",
      "geometry": {
        "type": "Point",
        "coordinates": [16.3642, 48.19941]
      },
      "properties": {
         "id": "pmb37",
         "title": "Theater an der Wien",
         "lat": "48.19941",
         "lon": "16.3642",
         "timestamp": ["1905-05-20"],
         "importance": "1"
      }
      },
    {
      "type": "Feature",
      "geometry": {
        "type": "Point",
        "coordinates": [16.283758, 48.1803]
      },
      "properties": {
         "id": "pmb232311",
         "title": "Münichreiterstraße 1",
         "lat": "48.1803",
         "lon": "16.283758",
         "timestamp": ["1905-05-20"],
         "importance": "1"
      }
      },
    {
      "type": "Feature",
      "geometry": {
        "type": "Point",
        "coordinates": [16.33472, 48.2304]
      },
      "properties": {
         "id": "pmb168940",
         "title": "Edmund-Weiß-Gasse 7",
         "lat": "48.2304",
         "lon": "16.33472",
         "timestamp": ["1905-05-20"],
         "importance": "1"
      }
      },
    {
      "type": "Feature",
      "geometry": {
        "type": "Point",
        "coordinates": [16.369495, 48.201427]
      },
      "properties": {
         "id": "pmb235558",
         "title": "Paul Hopfner und Söhne",
         "lat": "48.201427",
         "lon": "16.369495",
         "timestamp": ["1905-05-20"],
         "importance": "1"
      }
      },
    {
      "type": "Feature",
      "geometry": {
        "type": "Point",
        "coordinates": [16.29101, 48.17547]
      },
      "properties": {
         "id": "pmb63",
         "title": "XIII., Hietzing",
         "lat": "48.17547",
         "lon": "16.29101",
         "timestamp": ["1905-05-20"],
         "importance": "1", 
        "wikipedia": "https://de.wikipedia.org/wiki/Hietzing", 
        "wikidata": "http://www.wikidata.org/entity/Q636910"
      }
      }
  ]
}