{
  "type": "FeatureCollection",
  "features": [
    {
      "type": "Feature", 
      "geometry": {
        "type": "LineString", 
        "coordinates": [
            [16.373427, 48.209746], 
            [16.3957, 48.21766], 
            [16.33472, 48.2304], 
            [16.300034240016, 48.246838181084], 
            [16.28610371233, 48.233119188484]
          ]
      },
      "properties": {
        "name": "26. Januar 1906"
      }
    },
    {
      "type": "Feature",
      "geometry": {
        "type": "Point",
        "coordinates": [
          16.373427, 48.209746
        ]
      },
      "properties": {
        "title": "Stefanskeller [II]",
        "timestamp": ["1906-01-26"],
        "id": "https://pmb.acdh.oeaw.ac.at/entity/pmb246874/"
      }
      },
    {
      "type": "Feature",
      "geometry": {
        "type": "Point",
        "coordinates": [
          16.3957, 48.21766
        ]
      },
      "properties": {
        "title": "Lustspieltheater [Wien]",
        "timestamp": ["1906-01-26"],
        "id": "https://pmb.acdh.oeaw.ac.at/entity/pmb1209/", 
        "wikipedia": "https://de.wikipedia.org/wiki/Lustspielkino", 
        "wiengeschichtewiki": "https://www.geschichtewiki.wien.gv.at/F%C3%BCrsttheater"
      }
      },
    {
      "type": "Feature",
      "geometry": {
        "type": "Point",
        "coordinates": [
          16.300034240016, 48.246838181084
        ]
      },
      "properties": {
        "title": "Pötzleinsdorf",
        "timestamp": ["1906-01-26"],
        "id": "https://pmb.acdh.oeaw.ac.at/entity/pmb169/"
      }
      },
    {
      "type": "Feature",
      "geometry": {
        "type": "Point",
        "coordinates": [
          16.33472, 48.2304
        ]
      },
      "properties": {
        "title": "Edmund-Weiß-Gasse 7",
        "timestamp": ["1906-01-26"],
        "id": "https://pmb.acdh.oeaw.ac.at/entity/pmb168940/"
      }
      },
    {
      "type": "Feature",
      "geometry": {
        "type": "Point",
        "coordinates": [
          16.28610371233, 48.233119188484
        ]
      },
      "properties": {
        "title": "Neuwaldegg",
        "timestamp": ["1906-01-26"],
        "id": "https://pmb.acdh.oeaw.ac.at/entity/pmb170/"
      }
      }
  ]
}