{
  "type": "FeatureCollection",
  "features": [
    {
      "type": "Feature",
      "geometry": {
        "type": "Point",
        "coordinates": [12.56553, 55.67594]
      },
      "properties": {
         "id": "pmb36300",
         "title": "Kopenhagen",
         "lat": "55.67594",
         "lon": "12.56553",
         "timestamp": ["1906-07-02", "1906-07-16"],
         "importance": "2", 
        "wikipedia": "https://de.wikipedia.org/wiki/Kopenhagen", 
        "wikidata": "http://www.wikidata.org/entity/Q1748"
      }
      }, 
    {
      "type": "Feature",
      "geometry": {
        "type": "Point",
        "coordinates": [12.601917, 56.042028]
      },
      "properties": {
         "id": "pmb959",
         "title": "Marienlyst",
         "lat": "56.042028",
         "lon": "12.601917",
         "timestamp": ["1906-07-01", "1906-07-02", "1906-07-03", "1906-07-04", "1906-07-05", "1906-07-06", "1906-07-07", "1906-07-08", "1906-07-09", "1906-07-10", "1906-07-11", "1906-07-12", "1906-07-13", "1906-07-14", "1906-07-15", "1906-07-16", "1906-07-17", "1906-07-18", "1906-07-19", "1906-07-20", "1906-07-21", "1906-07-22", "1906-07-23", "1906-07-24", "1906-07-25", "1906-07-26", "1906-07-27", "1906-07-28", "1906-07-29", "1906-07-30", "1906-07-31"],
         "importance": "31", 
        "wikipedia": "https://de.wikipedia.org/wiki/Schloss_Marienlyst", 
        "wikidata": "http://www.wikidata.org/entity/Q359027"
      }
      }, 
    {
      "type": "Feature",
      "geometry": {
        "type": "Point",
        "coordinates": [12.603924, 56.044988]
      },
      "properties": {
         "id": "pmb41010",
         "title": "Kurhotellet",
         "lat": "56.044988",
         "lon": "12.603924",
         "timestamp": ["1906-07-01", "1906-07-02", "1906-07-03", "1906-07-04", "1906-07-05", "1906-07-06", "1906-07-07", "1906-07-08", "1906-07-09", "1906-07-10", "1906-07-11", "1906-07-12", "1906-07-13", "1906-07-14", "1906-07-15", "1906-07-16", "1906-07-17", "1906-07-18", "1906-07-19", "1906-07-20", "1906-07-21", "1906-07-22", "1906-07-23", "1906-07-24", "1906-07-25", "1906-07-26", "1906-07-27", "1906-07-28", "1906-07-29", "1906-07-30", "1906-07-31"],
         "importance": "31"
      }
      }, 
    {
      "type": "Feature",
      "geometry": {
        "type": "Point",
        "coordinates": [12.6136, 56.03606]
      },
      "properties": {
         "id": "pmb726",
         "title": "Helsingør",
         "lat": "56.03606",
         "lon": "12.6136",
         "timestamp": ["1906-07-09", "1906-07-11"],
         "importance": "2", 
        "wikipedia": "https://de.wikipedia.org/wiki/Helsing%C3%B8r", 
        "wikidata": "http://www.wikidata.org/entity/Q26881"
      }
      }, 
    {
      "type": "Feature",
      "geometry": {
        "type": "Point",
        "coordinates": [12.55782, 56.06823]
      },
      "properties": {
         "id": "pmb90855",
         "title": "Hellebæk",
         "lat": "56.06823",
         "lon": "12.55782",
         "timestamp": ["1906-07-01", "1906-07-10", "1906-07-19", "1906-07-22"],
         "importance": "4"
      }
      }, 
    {
      "type": "Feature",
      "geometry": {
        "type": "Point",
        "coordinates": [12.570783, 55.684556]
      },
      "properties": {
         "id": "pmb1109",
         "title": "Kommunehospitalet",
         "lat": "55.684556",
         "lon": "12.570783",
         "timestamp": ["1906-07-02"],
         "importance": "1", 
        "wikidata": "http://www.wikidata.org/entity/Q3199047"
      }
      }, 
    {
      "type": "Feature",
      "geometry": {
        "type": "Point",
        "coordinates": [12.592633, 55.678906]
      },
      "properties": {
         "id": "pmb238114",
         "title": "Havnegade 55",
         "lat": "55.678906",
         "lon": "12.592633",
         "timestamp": ["1906-07-02"],
         "importance": "1"
      }
      }, 
    {
      "type": "Feature",
      "geometry": {
        "type": "Point",
        "coordinates": [12.53995, 56.07559]
      },
      "properties": {
         "id": "pmb90178",
         "title": "Ålsgårde",
         "lat": "56.07559",
         "lon": "12.53995",
         "timestamp": ["1906-07-03"],
         "importance": "1"
      }
      }, 
    {
      "type": "Feature",
      "geometry": {
        "type": "Point",
        "coordinates": [12.69437, 56.04673]
      },
      "properties": {
         "id": "pmb90861",
         "title": "Helsingborg",
         "lat": "56.04673",
         "lon": "12.69437",
         "timestamp": ["1906-07-03"],
         "importance": "1"
      }
      }, 
    {
      "type": "Feature",
      "geometry": {
        "type": "Point",
        "coordinates": [12.30081, 55.92791]
      },
      "properties": {
         "id": "pmb90877",
         "title": "Hillerød",
         "lat": "55.92791",
         "lon": "12.30081",
         "timestamp": ["1906-07-05"],
         "importance": "1"
      }
      }, 
    {
      "type": "Feature",
      "geometry": {
        "type": "Point",
        "coordinates": [12.31056, 56.12196]
      },
      "properties": {
         "id": "pmb1153",
         "title": "Gilleleje",
         "lat": "56.12196",
         "lon": "12.31056",
         "timestamp": ["1906-07-05"],
         "importance": "1", 
        "wikipedia": "https://de.wikipedia.org/wiki/Gilleleje", 
        "wikidata": "http://www.wikidata.org/entity/Q2687297"
      }
      }, 
    {
      "type": "Feature",
      "geometry": {
        "type": "Point",
        "coordinates": [12.45693, 56.09027]
      },
      "properties": {
         "id": "pmb1159",
         "title": "Hornbæk",
         "lat": "56.09027",
         "lon": "12.45693",
         "timestamp": ["1906-07-05", "1906-07-27"],
         "importance": "2", 
        "wikipedia": "https://de.wikipedia.org/wiki/Hornb%C3%A6k", 
        "wikidata": "http://www.wikidata.org/entity/Q1257552"
      }
      }, 
    {
      "type": "Feature",
      "geometry": {
        "type": "Point",
        "coordinates": [12.5, 56.28333]
      },
      "properties": {
         "id": "pmb91261",
         "title": "Mölle",
         "lat": "56.28333",
         "lon": "12.5",
         "timestamp": ["1906-07-07"],
         "importance": "1"
      }
      }, 
    {
      "type": "Feature",
      "geometry": {
        "type": "Point",
        "coordinates": [12.492933, 56.285638]
      },
      "properties": {
         "id": "pmb238120",
         "title": "Grand Hotel Mölle",
         "lat": "56.285638",
         "lon": "12.492933",
         "timestamp": ["1906-07-07"],
         "importance": "1", 
        "wikidata": "http://www.wikidata.org/entity/Q10526553"
      }
      }, 
    {
      "type": "Feature",
      "geometry": {
        "type": "Point",
        "coordinates": [12.5983, 55.6914]
      },
      "properties": {
         "id": "pmb238123",
         "title": "Langelinie Pavilion",
         "lat": "55.6914",
         "lon": "12.5983",
         "timestamp": ["1906-07-16"],
         "importance": "1", 
        "wikidata": "http://www.wikidata.org/entity/Q12323728"
      }
      }, 
    {
      "type": "Feature",
      "geometry": {
        "type": "Point",
        "coordinates": [12.5494, 55.9956]
      },
      "properties": {
         "id": "pmb238126",
         "title": "Espergærde",
         "lat": "55.9956",
         "lon": "12.5494",
         "timestamp": ["1906-07-24"],
         "importance": "1", 
        "wikidata": "http://www.wikidata.org/entity/Q3058415"
      }
      }, 
    {
      "type": "Feature",
      "geometry": {
        "type": "Point",
        "coordinates": [12.57956, 56.01073]
      },
      "properties": {
         "id": "pmb238129",
         "title": "Snekkersten",
         "lat": "56.01073",
         "lon": "12.57956",
         "timestamp": ["1906-07-24"],
         "importance": "1", 
        "wikidata": "http://www.wikidata.org/entity/Q3894835"
      }
      }, 
    {
      "type": "Feature",
      "geometry": {
        "type": "Point",
        "coordinates": [12.4015929, 55.977962]
      },
      "properties": {
         "id": "pmb238132",
         "title": "Jernbane hotellet",
         "lat": "55.977962",
         "lon": "12.4015929",
         "timestamp": ["1906-07-24"],
         "importance": "1"
      }
      }, 
    {
      "type": "Feature",
      "geometry": {
        "type": "Point",
        "coordinates": [12.40314, 55.97558]
      },
      "properties": {
         "id": "pmb51762",
         "title": "Fredensborg",
         "lat": "55.97558",
         "lon": "12.40314",
         "timestamp": ["1906-07-24"],
         "importance": "1"
      }
      }, 
    {
      "type": "Feature",
      "geometry": {
        "type": "Point",
        "coordinates": [12.30041, 55.93451]
      },
      "properties": {
         "id": "pmb90649",
         "title": "Frederiksborg Slot",
         "lat": "55.93451",
         "lon": "12.30041",
         "timestamp": ["1906-07-24", "1906-07-25"],
         "importance": "2"
      }
      }
  ]
}