{
  "type": "FeatureCollection",
  "features": [
    {
      "type": "Feature", 
      "geometry": {
        "type": "LineString", 
        "coordinates": [
            [16.130278, 48.055278], 
            [16.15292, 48.04261], 
            [16.27801, 48.08424], 
            [16.24809, 48.08611], 
            [16.241739, 48.090788]
          ]
      },
      "properties": {
        "name": "1. Juni 1907"
      }
    },
    {
      "type": "Feature",
      "geometry": {
        "type": "Point",
        "coordinates": [16.24809, 48.08611]
      },
      "properties": {
         "id": "pmb75",
         "title": "Hinterbrühl",
         "lat": "48.08611",
         "lon": "16.24809",
         "timestamp": ["1907-06-01"],
         "importance": "1", 
        "wikipedia": "https://de.wikipedia.org/wiki/Hinterbr%C3%BChl", 
        "wikidata": "http://www.wikidata.org/entity/Q664735"
      }
      },
    {
      "type": "Feature",
      "geometry": {
        "type": "Point",
        "coordinates": [16.241739, 48.090788]
      },
      "properties": {
         "id": "pmb44510",
         "title": "Hotel Radetzky",
         "lat": "48.090788",
         "lon": "16.241739",
         "timestamp": ["1907-06-01"],
         "importance": "1"
      }
      },
    {
      "type": "Feature",
      "geometry": {
        "type": "Point",
        "coordinates": [16.130278, 48.055278]
      },
      "properties": {
         "id": "pmb44789",
         "title": "Stift Heiligenkreuz",
         "lat": "48.055278",
         "lon": "16.130278",
         "timestamp": ["1907-06-01"],
         "importance": "1"
      }
      },
    {
      "type": "Feature",
      "geometry": {
        "type": "Point",
        "coordinates": [16.15292, 48.04261]
      },
      "properties": {
         "id": "pmb939",
         "title": "Heiligenkreuz",
         "lat": "48.04261",
         "lon": "16.15292",
         "timestamp": ["1907-06-01"],
         "importance": "1", 
        "wikipedia": "https://de.wikipedia.org/wiki/Heiligenkreuz_(Nieder%C3%B6sterreich)", 
        "wikidata": "http://www.wikidata.org/entity/Q665159"
      }
      },
    {
      "type": "Feature",
      "geometry": {
        "type": "Point",
        "coordinates": [16.27801, 48.08424]
      },
      "properties": {
         "id": "pmb246564",
         "title": "Klausen [Mödling]",
         "lat": "48.08424",
         "lon": "16.27801",
         "timestamp": ["1907-06-01"],
         "importance": "1"
      }
      }
  ]
}