{
  "type": "FeatureCollection",
  "features": [
    {
      "type": "Feature",
      "geometry": {
        "type": "Point",
        "coordinates": [12.22109, 46.72493]
      },
      "properties": {
         "id": "pmb987",
         "title": "Toblach",
         "lat": "46.72493",
         "lon": "12.22109",
         "timestamp": ["1907-07-05"],
         "importance": "1", 
        "wikipedia": "https://de.wikipedia.org/wiki/Toblach", 
        "wikidata": "http://www.wikidata.org/entity/Q380189"
      }
      }, 
    {
      "type": "Feature",
      "geometry": {
        "type": "Point",
        "coordinates": [13.5, 46.8]
      },
      "properties": {
         "id": "pmb41052",
         "title": "Spittal an der Drau",
         "lat": "46.8",
         "lon": "13.5",
         "timestamp": ["1907-07-02", "1907-07-03"],
         "importance": "2", 
        "wikipedia": "https://de.wikipedia.org/wiki/Spittal_an_der_Drau", 
        "wikidata": "http://www.wikidata.org/entity/Q487500"
      }
      }, 
    {
      "type": "Feature",
      "geometry": {
        "type": "Point",
        "coordinates": [13.5733, 46.8052]
      },
      "properties": {
         "id": "pmb41069",
         "title": "Millstatt",
         "lat": "46.8052",
         "lon": "13.5733",
         "timestamp": ["1907-07-03"],
         "importance": "1"
      }
      }, 
    {
      "type": "Feature",
      "geometry": {
        "type": "Point",
        "coordinates": [13.8529, 46.61254]
      },
      "properties": {
         "id": "pmb40454",
         "title": "Villach",
         "lat": "46.61254",
         "lon": "13.8529",
         "timestamp": ["1907-07-01", "1907-07-02"],
         "importance": "2", 
        "wikipedia": "https://de.wikipedia.org/wiki/Villach", 
        "wikidata": "http://www.wikidata.org/entity/Q483522"
      }
      }, 
    {
      "type": "Feature",
      "geometry": {
        "type": "Point",
        "coordinates": [13.52346, 46.83649]
      },
      "properties": {
         "id": "pmb34824",
         "title": "Seeboden",
         "lat": "46.83649",
         "lon": "13.52346",
         "timestamp": ["1907-07-03"],
         "importance": "1"
      }
      }, 
    {
      "type": "Feature",
      "geometry": {
        "type": "Point",
        "coordinates": [12.27855, 46.7324]
      },
      "properties": {
         "id": "pmb90929",
         "title": "Innichen",
         "lat": "46.7324",
         "lon": "12.27855",
         "timestamp": ["1907-07-03", "1907-07-04"],
         "importance": "2", 
        "wikipedia": "https://de.wikipedia.org/wiki/Innichen", 
        "wikidata": "http://www.wikidata.org/entity/Q474782"
      }
      }, 
    {
      "type": "Feature",
      "geometry": {
        "type": "Point",
        "coordinates": [12.17266, 46.73781]
      },
      "properties": {
         "id": "pmb91350",
         "title": "Niederdorf",
         "lat": "46.73781",
         "lon": "12.17266",
         "timestamp": ["1907-07-16"],
         "importance": "1"
      }
      }, 
    {
      "type": "Feature",
      "geometry": {
        "type": "Point",
        "coordinates": [12.13339, 46.72023]
      },
      "properties": {
         "id": "pmb91526",
         "title": "Braies",
         "lat": "46.72023",
         "lon": "12.13339",
         "timestamp": ["1907-07-31"],
         "importance": "1"
      }
      }, 
    {
      "type": "Feature",
      "geometry": {
        "type": "Point",
        "coordinates": [12.18531, 46.64949]
      },
      "properties": {
         "id": "pmb91490",
         "title": "Prato Piazza",
         "lat": "46.64949",
         "lon": "12.18531",
         "timestamp": ["1907-07-25"],
         "importance": "1"
      }
      }, 
    {
      "type": "Feature",
      "geometry": {
        "type": "Point",
        "coordinates": [11.9449, 46.7963]
      },
      "properties": {
         "id": "pmb1236",
         "title": "Bruneck",
         "lat": "46.7963",
         "lon": "11.9449",
         "timestamp": ["1907-07-18"],
         "importance": "1"
      }
      }, 
    {
      "type": "Feature",
      "geometry": {
        "type": "Point",
        "coordinates": [12.10556, 46.75774]
      },
      "properties": {
         "id": "pmb428",
         "title": "Welsberg-Taisten",
         "lat": "46.75774",
         "lon": "12.10556",
         "timestamp": ["1907-07-04", "1907-07-05", "1907-07-06", "1907-07-07", "1907-07-08", "1907-07-09", "1907-07-10", "1907-07-11", "1907-07-12", "1907-07-13", "1907-07-14", "1907-07-15", "1907-07-16", "1907-07-17", "1907-07-18", "1907-07-19", "1907-07-20", "1907-07-21", "1907-07-22", "1907-07-23", "1907-07-24", "1907-07-25", "1907-07-26", "1907-07-27", "1907-07-28", "1907-07-29", "1907-07-30", "1907-07-31"],
         "importance": "28", 
        "wikipedia": "https://de.wikipedia.org/wiki/Welsberg_(Welsberg-Taisten) https://de.wikipedia.org/wiki/Welsberg-Taisten", 
        "wikidata": "http://www.wikidata.org/entity/Q26269623 http://www.wikidata.org/entity/Q431389"
      }
      }, 
    {
      "type": "Feature",
      "geometry": {
        "type": "Point",
        "coordinates": [12.101269, 46.751211]
      },
      "properties": {
         "id": "pmb723",
         "title": "Wildbad Waldbrunn",
         "lat": "46.751211",
         "lon": "12.101269",
         "timestamp": ["1907-07-04", "1907-07-05", "1907-07-06", "1907-07-07", "1907-07-08", "1907-07-09", "1907-07-10", "1907-07-11", "1907-07-12", "1907-07-13", "1907-07-14", "1907-07-15", "1907-07-16", "1907-07-17", "1907-07-18", "1907-07-19", "1907-07-20", "1907-07-21", "1907-07-22", "1907-07-23", "1907-07-24", "1907-07-25", "1907-07-26", "1907-07-27", "1907-07-28", "1907-07-29", "1907-07-30", "1907-07-31"],
         "importance": "28"
      }
      }, 
    {
      "type": "Feature",
      "geometry": {
        "type": "Point",
        "coordinates": [12.113828, 46.759759]
      },
      "properties": {
         "id": "pmb1100",
         "title": "Schloss Welsperg",
         "lat": "46.759759",
         "lon": "12.113828",
         "timestamp": ["1907-07-13"],
         "importance": "1", 
        "wikipedia": "https://de.wikipedia.org/wiki/Schloss_Welsperg", 
        "wikidata": "http://www.wikidata.org/entity/Q781427"
      }
      }, 
    {
      "type": "Feature",
      "geometry": {
        "type": "Point",
        "coordinates": [12.11397, 46.76891]
      },
      "properties": {
         "id": "pmb91867",
         "title": "Taisten",
         "lat": "46.76891",
         "lon": "12.11397",
         "timestamp": ["1907-07-15", "1907-07-19"],
         "importance": "2", 
        "wikipedia": "https://de.wikipedia.org/wiki/Taisten", 
        "wikidata": "http://www.wikidata.org/entity/Q2388837"
      }
      }, 
    {
      "type": "Feature",
      "geometry": {
        "type": "Point",
        "coordinates": [13.885868, 46.278241]
      },
      "properties": {
         "id": "pmb1205",
         "title": "Die Wochein",
         "lat": "46.278241",
         "lon": "13.885868",
         "timestamp": ["1907-07-01"],
         "importance": "1"
      }
      }, 
    {
      "type": "Feature",
      "geometry": {
        "type": "Point",
        "coordinates": [13.891441666667, 46.272933333333]
      },
      "properties": {
         "id": "pmb246618",
         "title": "Ribƒçev Laz",
         "lat": "46.272933333333",
         "lon": "13.891441666667",
         "timestamp": ["1907-07-01"],
         "importance": "1", 
        "wikidata": "http://www.wikidata.org/entity/Q2689294"
      }
      }, 
    {
      "type": "Feature",
      "geometry": {
        "type": "Point",
        "coordinates": [14.11361, 46.36917]
      },
      "properties": {
         "id": "pmb590",
         "title": "Bled",
         "lat": "46.36917",
         "lon": "14.11361",
         "timestamp": ["1907-07-01"],
         "importance": "1", 
        "wikipedia": "https://de.wikipedia.org/wiki/Bled", 
        "wikidata": "http://www.wikidata.org/entity/Q202852"
      }
      }, 
    {
      "type": "Feature",
      "geometry": {
        "type": "Point",
        "coordinates": [14.107532, 46.365873]
      },
      "properties": {
         "id": "pmb246624",
         "title": "Hotel Luisenbad",
         "lat": "46.365873",
         "lon": "14.107532",
         "timestamp": ["1907-07-01"],
         "importance": "1"
      }
      }, 
    {
      "type": "Feature",
      "geometry": {
        "type": "Point",
        "coordinates": [13.44333, 46.62694]
      },
      "properties": {
         "id": "pmb91542",
         "title": "Presseggersee",
         "lat": "46.62694",
         "lon": "13.44333",
         "timestamp": ["1907-07-02"],
         "importance": "1"
      }
      }, 
    {
      "type": "Feature",
      "geometry": {
        "type": "Point",
        "coordinates": [13.570663, 46.803418]
      },
      "properties": {
         "id": "pmb246632",
         "title": "Lindenhof",
         "lat": "46.803418",
         "lon": "13.570663",
         "timestamp": ["1907-07-03"],
         "importance": "1"
      }
      }, 
    {
      "type": "Feature",
      "geometry": {
        "type": "Point",
        "coordinates": [12.353684, 46.666799]
      },
      "properties": {
         "id": "pmb90156",
         "title": "Fischleinboden",
         "lat": "46.666799",
         "lon": "12.353684",
         "timestamp": ["1907-07-04"],
         "importance": "1"
      }
      }, 
    {
      "type": "Feature",
      "geometry": {
        "type": "Point",
        "coordinates": [12.294528, 46.7176]
      },
      "properties": {
         "id": "pmb246635",
         "title": "Wildbad Innichen",
         "lat": "46.7176",
         "lon": "12.294528",
         "timestamp": ["1907-07-04"],
         "importance": "1", 
        "wikipedia": "https://de.wikipedia.org/wiki/Wildbad_Innichen", 
        "wikidata": "http://www.wikidata.org/entity/Q2570383"
      }
      }, 
    {
      "type": "Feature",
      "geometry": {
        "type": "Point",
        "coordinates": [12.02951, 46.76027]
      },
      "properties": {
         "id": "pmb90157",
         "title": "Olang",
         "lat": "46.76027",
         "lon": "12.02951",
         "timestamp": ["1907-07-17", "1907-07-22", "1907-07-23"],
         "importance": "3"
      }
      }, 
    {
      "type": "Feature",
      "geometry": {
        "type": "Point",
        "coordinates": [11.33888889, 46.500379]
      },
      "properties": {
         "id": "pmb11827",
         "title": "Gries-Quirein",
         "lat": "46.500379",
         "lon": "11.33888889",
         "timestamp": ["1907-07-21"],
         "importance": "1", 
        "wikipedia": "https://de.wikipedia.org/wiki/Gries-Quirein", 
        "wikidata": "http://www.wikidata.org/entity/Q1546471"
      }
      }, 
    {
      "type": "Feature",
      "geometry": {
        "type": "Point",
        "coordinates": [12.17939, 46.76833]
      },
      "properties": {
         "id": "pmb90793",
         "title": "Valle di Casies",
         "lat": "46.76833",
         "lon": "12.17939",
         "timestamp": ["1907-07-21"],
         "importance": "1"
      }
      }, 
    {
      "type": "Feature",
      "geometry": {
        "type": "Point",
        "coordinates": [12.072777777778, 46.736111111111]
      },
      "properties": {
         "id": "pmb246641",
         "title": "Brunstalm",
         "lat": "46.736111111111",
         "lon": "12.072777777778",
         "timestamp": ["1907-07-23"],
         "importance": "1", 
        "wikidata": "http://www.wikidata.org/entity/Q31628459"
      }
      }
  ]
}