{
  "type": "FeatureCollection",
  "features": [
    {
      "type": "Feature", 
      "geometry": {
        "type": "LineString", 
        "coordinates": [
            [16.360823, 48.200581], 
            [16.371296264238, 48.202432234197], 
            [16.375811, 48.203191], 
            [16.370342, 48.211369], 
            [16.362489, 48.213964], 
            [16.35736, 48.21533], 
            [16.33472, 48.2304]
          ]
      },
      "properties": {
        "name": "14. Juni 1907"
      }
    },
    {
      "type": "Feature",
      "geometry": {
        "type": "Point",
        "coordinates": [16.35736, 48.21533]
      },
      "properties": {
         "id": "pmb168934",
         "title": "Frankgasse 1",
         "lat": "48.21533",
         "lon": "16.35736",
         "timestamp": ["1907-06-14"],
         "importance": "1"
      }
      },
    {
      "type": "Feature",
      "geometry": {
        "type": "Point",
        "coordinates": [16.375811, 48.203191]
      },
      "properties": {
         "id": "pmb233517",
         "title": "Kaiserpanorama [Wien, Schubertring 4]",
         "lat": "48.203191",
         "lon": "16.375811",
         "timestamp": ["1907-06-14"],
         "importance": "1"
      }
      },
    {
      "type": "Feature",
      "geometry": {
        "type": "Point",
        "coordinates": [16.370342, 48.211369]
      },
      "properties": {
         "id": "pmb234548",
         "title": "Jordangasse 9",
         "lat": "48.211369",
         "lon": "16.370342",
         "timestamp": ["1907-06-14"],
         "importance": "1"
      }
      },
    {
      "type": "Feature",
      "geometry": {
        "type": "Point",
        "coordinates": [16.371296264238, 48.202432234197]
      },
      "properties": {
         "id": "pmb112",
         "title": "Ringstraße",
         "lat": "48.202432234197",
         "lon": "16.371296264238",
         "timestamp": ["1907-06-14"],
         "importance": "1", 
        "wikipedia": "https://de.wikipedia.org/wiki/Wiener_Ringstra%C3%9Fe", 
        "wikidata": "http://www.wikidata.org/entity/Q46232"
      }
      },
    {
      "type": "Feature",
      "geometry": {
        "type": "Point",
        "coordinates": [16.362489, 48.213964]
      },
      "properties": {
         "id": "pmb92521",
         "title": "Schottentor",
         "lat": "48.213964",
         "lon": "16.362489",
         "timestamp": ["1907-06-14"],
         "importance": "1", 
        "wikipedia": "https://de.wikipedia.org/wiki/Schottentor", 
        "wikidata": "http://www.wikidata.org/entity/Q1637154"
      }
      },
    {
      "type": "Feature",
      "geometry": {
        "type": "Point",
        "coordinates": [16.360823, 48.200581]
      },
      "properties": {
         "id": "pmb236634",
         "title": "Theobaldgasse 7",
         "lat": "48.200581",
         "lon": "16.360823",
         "timestamp": ["1907-06-14"],
         "importance": "1"
      }
      },
    {
      "type": "Feature",
      "geometry": {
        "type": "Point",
        "coordinates": [16.33472, 48.2304]
      },
      "properties": {
         "id": "pmb168940",
         "title": "Edmund-Weiß-Gasse 7",
         "lat": "48.2304",
         "lon": "16.33472",
         "timestamp": ["1907-06-14"],
         "importance": "1"
      }
      }
  ]
}