{
  "type": "FeatureCollection",
  "features": [
    {
      "type": "Feature", 
      "geometry": {
        "type": "LineString", 
        "coordinates": [
            [16.24809, 48.08611], 
            [16.26108, 48.08153], 
            [16.27, 48.0925], 
            [16.2652, 48.080769], 
            [16.28921, 48.08605], 
            [16.369444, 48.203889], 
            [16.373056, 48.208333], 
            [16.3642, 48.19941], 
            [16.33472, 48.2304]
          ]
      },
      "properties": {
        "name": "16. Mai 1907"
      }
    },
    {
      "type": "Feature",
      "geometry": {
        "type": "Point",
        "coordinates": [16.373056, 48.208333]
      },
      "properties": {
         "id": "pmb50",
         "title": "Wien",
         "lat": "48.208333",
         "lon": "16.373056",
         "timestamp": ["1907-05-16"],
         "importance": "1", 
        "wikipedia": "https://de.wikipedia.org/wiki/Wien", 
        "wikidata": "http://www.wikidata.org/entity/Q1741"
      }
      },
    {
      "type": "Feature",
      "geometry": {
        "type": "Point",
        "coordinates": [16.27, 48.0925]
      },
      "properties": {
         "id": "pmb91145",
         "title": "Burg Liechtenstein",
         "lat": "48.0925",
         "lon": "16.27",
         "timestamp": ["1907-05-16"],
         "importance": "1"
      }
      },
    {
      "type": "Feature",
      "geometry": {
        "type": "Point",
        "coordinates": [16.369444, 48.203889]
      },
      "properties": {
         "id": "pmb29",
         "title": "Hotel Sacher",
         "lat": "48.203889",
         "lon": "16.369444",
         "timestamp": ["1907-05-16"],
         "importance": "1"
      }
      },
    {
      "type": "Feature",
      "geometry": {
        "type": "Point",
        "coordinates": [16.3642, 48.19941]
      },
      "properties": {
         "id": "pmb37",
         "title": "Theater an der Wien",
         "lat": "48.19941",
         "lon": "16.3642",
         "timestamp": ["1907-05-16"],
         "importance": "1"
      }
      },
    {
      "type": "Feature",
      "geometry": {
        "type": "Point",
        "coordinates": [16.2652, 48.080769]
      },
      "properties": {
         "id": "pmb192771",
         "title": "Hotel Hajek",
         "lat": "48.080769",
         "lon": "16.2652",
         "timestamp": ["1907-05-16"],
         "importance": "1", 
        "wikidata": "http://www.wikidata.org/entity/Q130472316"
      }
      },
    {
      "type": "Feature",
      "geometry": {
        "type": "Point",
        "coordinates": [16.28921, 48.08605]
      },
      "properties": {
         "id": "pmb968",
         "title": "Mödling",
         "lat": "48.08605",
         "lon": "16.28921",
         "timestamp": ["1907-05-16"],
         "importance": "1", 
        "wikipedia": "https://de.wikipedia.org/wiki/M%C3%B6dling", 
        "wikidata": "http://www.wikidata.org/entity/Q277965"
      }
      },
    {
      "type": "Feature",
      "geometry": {
        "type": "Point",
        "coordinates": [16.24809, 48.08611]
      },
      "properties": {
         "id": "pmb75",
         "title": "Hinterbrühl",
         "lat": "48.08611",
         "lon": "16.24809",
         "timestamp": ["1907-05-16"],
         "importance": "1", 
        "wikipedia": "https://de.wikipedia.org/wiki/Hinterbr%C3%BChl", 
        "wikidata": "http://www.wikidata.org/entity/Q664735"
      }
      },
    {
      "type": "Feature",
      "geometry": {
        "type": "Point",
        "coordinates": [16.26108, 48.08153]
      },
      "properties": {
         "id": "pmb957",
         "title": "Vorderbrühl",
         "lat": "48.08153",
         "lon": "16.26108",
         "timestamp": ["1907-05-16"],
         "importance": "1"
      }
      },
    {
      "type": "Feature",
      "geometry": {
        "type": "Point",
        "coordinates": [16.33472, 48.2304]
      },
      "properties": {
         "id": "pmb168940",
         "title": "Edmund-Weiß-Gasse 7",
         "lat": "48.2304",
         "lon": "16.33472",
         "timestamp": ["1907-05-16"],
         "importance": "1"
      }
      }
  ]
}