{
  "type": "FeatureCollection",
  "features": [
    {
      "type": "Feature", 
      "geometry": {
        "type": "LineString", 
        "coordinates": [
            [16.24809, 48.08611], 
            [16.26108, 48.08153], 
            [16.26108, 48.08153], 
            [16.369444, 48.203889], 
            [16.3642, 48.19941], 
            [16.33472, 48.2304]
          ]
      },
      "properties": {
        "name": "16. Mai 1907"
      }
    },
    {
      "type": "Feature",
      "geometry": {
        "type": "Point",
        "coordinates": [
          16.369444, 48.203889
        ]
      },
      "properties": {
        "title": "Hotel Sacher",
        "timestamp": ["1907-05-16"],
        "pmb": "https://pmb.acdh.oeaw.ac.at/entity/pmb29/"
      }
      },
    {
      "type": "Feature",
      "geometry": {
        "type": "Point",
        "coordinates": [
          16.3642, 48.19941
        ]
      },
      "properties": {
        "title": "Theater an der Wien",
        "timestamp": ["1907-05-16"],
        "pmb": "https://pmb.acdh.oeaw.ac.at/entity/pmb37/"
      }
      },
    {
      "type": "Feature",
      "geometry": {
        "type": "Point",
        "coordinates": [
          16.33472, 48.2304
        ]
      },
      "properties": {
        "title": "Edmund-Weiß-Gasse 7",
        "timestamp": ["1907-05-16"],
        "pmb": "https://pmb.acdh.oeaw.ac.at/entity/pmb168940/"
      }
      },
    {
      "type": "Feature",
      "geometry": {
        "type": "Point",
        "coordinates": [
          16.26108, 48.08153
        ]
      },
      "properties": {
        "title": "Vorderbrühl",
        "timestamp": ["1907-05-16"],
        "pmb": "https://pmb.acdh.oeaw.ac.at/entity/pmb957/"
      }
      },
    {
      "type": "Feature",
      "geometry": {
        "type": "Point",
        "coordinates": [
          16.26108, 48.08153
        ]
      },
      "properties": {
        "title": "Vorderbrühl",
        "timestamp": ["1907-05-16"],
        "pmb": "https://pmb.acdh.oeaw.ac.at/entity/pmb957/"
      }
      },
    {
      "type": "Feature",
      "geometry": {
        "type": "Point",
        "coordinates": [
          16.24809, 48.08611
        ]
      },
      "properties": {
        "title": "Hinterbrühl",
        "timestamp": ["1907-05-16"],
        "pmb": "https://pmb.acdh.oeaw.ac.at/entity/pmb75/", 
        "wikipedia": "https://de.wikipedia.org/wiki/Hinterbr%C3%BChl"
      }
      }
  ]
}