{
  "type": "FeatureCollection",
  "features": [
    {
      "type": "Feature", 
      "geometry": {
        "type": "LineString", 
        "coordinates": [
            [16.299116267833, 48.230916826952], 
            [16.35736, 48.21533], 
            [16.33472, 48.2304], 
            [16.331527, 48.23428], 
            [16.300034240016, 48.246838181084]
          ]
      },
      "properties": {
        "name": "24. März 1907"
      }
    },
    {
      "type": "Feature",
      "geometry": {
        "type": "Point",
        "coordinates": [
          16.35736, 48.21533
        ]
      },
      "properties": {
        "title": "Frankgasse 1",
        "timestamp": ["1907-03-24"],
        "id": "pmb168934"
      }
      },
    {
      "type": "Feature",
      "geometry": {
        "type": "Point",
        "coordinates": [
          16.299116267833, 48.230916826952
        ]
      },
      "properties": {
        "title": "Dornbach",
        "timestamp": ["1907-03-24"],
        "id": "pmb499"
      }
      },
    {
      "type": "Feature",
      "geometry": {
        "type": "Point",
        "coordinates": [
          16.331527, 48.23428
        ]
      },
      "properties": {
        "title": "Restauration Türkenschanz-Park",
        "timestamp": ["1907-03-24"],
        "id": "pmb74"
      }
      },
    {
      "type": "Feature",
      "geometry": {
        "type": "Point",
        "coordinates": [
          16.300034240016, 48.246838181084
        ]
      },
      "properties": {
        "title": "Pötzleinsdorf",
        "timestamp": ["1907-03-24"],
        "id": "pmb169"
      }
      },
    {
      "type": "Feature",
      "geometry": {
        "type": "Point",
        "coordinates": [
          16.33472, 48.2304
        ]
      },
      "properties": {
        "title": "Edmund-Weiß-Gasse 7",
        "timestamp": ["1907-03-24"],
        "id": "pmb168940"
      }
      }
  ]
}