{
  "type": "FeatureCollection",
  "features": [
    {
      "type": "Feature", 
      "geometry": {
        "type": "LineString", 
        "coordinates": [
            [16.372564182283, 48.201265597319], 
            [16.372966, 48.202526], 
            [16.378011, 48.205565], 
            [16.373056, 48.208333], 
            [16.394461, 48.204893], 
            [16.33472, 48.2304]
          ]
      },
      "properties": {
        "name": "1. April 1908"
      }
    },
    {
      "type": "Feature",
      "geometry": {
        "type": "Point",
        "coordinates": [16.373056, 48.208333]
      },
      "properties": {
         "id": "pmb50",
         "title": "Wien",
         "lat": "48.208333",
         "lon": "16.373056",
         "timestamp": ["1908-04-01"],
         "importance": "1", 
        "wikipedia": "https://de.wikipedia.org/wiki/Wien", 
        "wikidata": "http://www.wikidata.org/entity/Q1741"
      }
      },
    {
      "type": "Feature",
      "geometry": {
        "type": "Point",
        "coordinates": [16.372966, 48.202526]
      },
      "properties": {
         "id": "pmb232296",
         "title": "Mahlerstraße 13",
         "lat": "48.202526",
         "lon": "16.372966",
         "timestamp": ["1908-04-01"],
         "importance": "1"
      }
      },
    {
      "type": "Feature",
      "geometry": {
        "type": "Point",
        "coordinates": [16.378011, 48.205565]
      },
      "properties": {
         "id": "pmb182754",
         "title": "Gartenbausäle",
         "lat": "48.205565",
         "lon": "16.378011",
         "timestamp": ["1908-04-01"],
         "importance": "1", 
        "wiengeschichtewiki": "https://www.geschichtewiki.wien.gv.at/Gartenbausäle"
      }
      },
    {
      "type": "Feature",
      "geometry": {
        "type": "Point",
        "coordinates": [16.372564182283, 48.201265597319]
      },
      "properties": {
         "id": "pmb516",
         "title": "Musikverein",
         "lat": "48.201265597319",
         "lon": "16.372564182283",
         "timestamp": ["1908-04-01"],
         "importance": "1"
      }
      },
    {
      "type": "Feature",
      "geometry": {
        "type": "Point",
        "coordinates": [16.394461, 48.204893]
      },
      "properties": {
         "id": "pmb246847",
         "title": "Geologengasse 5",
         "lat": "48.204893",
         "lon": "16.394461",
         "timestamp": ["1908-04-01"],
         "importance": "1"
      }
      },
    {
      "type": "Feature",
      "geometry": {
        "type": "Point",
        "coordinates": [16.33472, 48.2304]
      },
      "properties": {
         "id": "pmb168940",
         "title": "Edmund-Weiß-Gasse 7",
         "lat": "48.2304",
         "lon": "16.33472",
         "timestamp": ["1908-04-01"],
         "importance": "1"
      }
      }
  ]
}