{
  "type": "FeatureCollection",
  "features": [
    {
      "type": "Feature",
      "geometry": {
        "type": "Point",
        "coordinates": [16.375, 48.205139]
      },
      "properties": {
         "id": "pmb19",
         "title": "Ronacher",
         "lat": "48.205139",
         "lon": "16.375",
         "timestamp": ["1908-04-02"],
         "importance": "1"
      }
      }, 
    {
      "type": "Feature",
      "geometry": {
        "type": "Point",
        "coordinates": [16.373056, 48.208333]
      },
      "properties": {
         "id": "pmb50",
         "title": "Wien",
         "lat": "48.208333",
         "lon": "16.373056",
         "timestamp": ["1908-04-01", "1908-04-02", "1908-04-03", "1908-04-04", "1908-04-05", "1908-04-06", "1908-04-07", "1908-04-08", "1908-04-09", "1908-04-10", "1908-04-11", "1908-04-12", "1908-04-13", "1908-04-14", "1908-04-15", "1908-04-16", "1908-04-17", "1908-04-18", "1908-04-19", "1908-04-20", "1908-04-21", "1908-04-22", "1908-04-23", "1908-04-24", "1908-04-25"],
         "importance": "25"
      }
      }, 
    {
      "type": "Feature",
      "geometry": {
        "type": "Point",
        "coordinates": [16.372564182283, 48.201265597319]
      },
      "properties": {
         "id": "pmb516",
         "title": "Musikverein",
         "lat": "48.201265597319",
         "lon": "16.372564182283",
         "timestamp": ["1908-04-01"],
         "importance": "1"
      }
      }, 
    {
      "type": "Feature",
      "geometry": {
        "type": "Point",
        "coordinates": [16.378011, 48.205565]
      },
      "properties": {
         "id": "pmb182754",
         "title": "Gartenbausäle",
         "lat": "48.205565",
         "lon": "16.378011",
         "timestamp": ["1908-04-01"],
         "importance": "1"
      }
      }, 
    {
      "type": "Feature",
      "geometry": {
        "type": "Point",
        "coordinates": [16.36756870745, 48.244596474277]
      },
      "properties": {
         "id": "pmb159",
         "title": "Heiligenstadt",
         "lat": "48.244596474277",
         "lon": "16.36756870745",
         "timestamp": ["1908-04-05", "1908-04-12"],
         "importance": "2"
      }
      }, 
    {
      "type": "Feature",
      "geometry": {
        "type": "Point",
        "coordinates": [11.33982, 46.49067]
      },
      "properties": {
         "id": "pmb6937",
         "title": "Bozen",
         "lat": "46.49067",
         "lon": "11.33982",
         "timestamp": ["1908-04-30"],
         "importance": "1"
      }
      }, 
    {
      "type": "Feature",
      "geometry": {
        "type": "Point",
        "coordinates": [16.355191, 48.248422]
      },
      "properties": {
         "id": "pmb92292",
         "title": "Hohe Warte",
         "lat": "48.248422",
         "lon": "16.355191",
         "timestamp": ["1908-04-12"],
         "importance": "1"
      }
      }, 
    {
      "type": "Feature",
      "geometry": {
        "type": "Point",
        "coordinates": [16.37049, 48.20769]
      },
      "properties": {
         "id": "pmb51",
         "title": "I., Innere Stadt",
         "lat": "48.20769",
         "lon": "16.37049",
         "timestamp": ["1908-04-23"],
         "importance": "1"
      }
      }, 
    {
      "type": "Feature",
      "geometry": {
        "type": "Point",
        "coordinates": [16.341944, 48.233056]
      },
      "properties": {
         "id": "pmb533",
         "title": "Währinger Cottage",
         "lat": "48.233056",
         "lon": "16.341944",
         "timestamp": ["1908-04-20"],
         "importance": "1"
      }
      }, 
    {
      "type": "Feature",
      "geometry": {
        "type": "Point",
        "coordinates": [16.276509500872, 48.241960480337]
      },
      "properties": {
         "id": "pmb176",
         "title": "Schwarzenbergpark",
         "lat": "48.241960480337",
         "lon": "16.276509500872",
         "timestamp": ["1908-04-16", "1908-04-19"],
         "importance": "2"
      }
      }, 
    {
      "type": "Feature",
      "geometry": {
        "type": "Point",
        "coordinates": [16.364167, 48.259444]
      },
      "properties": {
         "id": "pmb403",
         "title": "Nussdorf",
         "lat": "48.259444",
         "lon": "16.364167",
         "timestamp": ["1908-04-12"],
         "importance": "1"
      }
      }, 
    {
      "type": "Feature",
      "geometry": {
        "type": "Point",
        "coordinates": [16.300034240016, 48.246838181084]
      },
      "properties": {
         "id": "pmb169",
         "title": "Pötzleinsdorf",
         "lat": "48.246838181084",
         "lon": "16.300034240016",
         "timestamp": ["1908-04-16", "1908-04-19"],
         "importance": "2"
      }
      }, 
    {
      "type": "Feature",
      "geometry": {
        "type": "Point",
        "coordinates": [10.84118, 45.88576]
      },
      "properties": {
         "id": "pmb465",
         "title": "Riva del Garda",
         "lat": "45.88576",
         "lon": "10.84118",
         "timestamp": ["1908-04-26", "1908-04-27", "1908-04-28", "1908-04-29", "1908-04-30"],
         "importance": "5"
      }
      }, 
    {
      "type": "Feature",
      "geometry": {
        "type": "Point",
        "coordinates": [10.88672, 45.91772]
      },
      "properties": {
         "id": "pmb39972",
         "title": "Arco",
         "lat": "45.91772",
         "lon": "10.88672",
         "timestamp": ["1908-04-27"],
         "importance": "1"
      }
      }, 
    {
      "type": "Feature",
      "geometry": {
        "type": "Point",
        "coordinates": [10.87561, 45.86951]
      },
      "properties": {
         "id": "pmb40294",
         "title": "Torbole sul Garda",
         "lat": "45.86951",
         "lon": "10.87561",
         "timestamp": ["1908-04-26"],
         "importance": "1"
      }
      }, 
    {
      "type": "Feature",
      "geometry": {
        "type": "Point",
        "coordinates": [10.5205, 45.60685]
      },
      "properties": {
         "id": "pmb39611",
         "title": "Salò",
         "lat": "45.60685",
         "lon": "10.5205",
         "timestamp": ["1908-04-29"],
         "importance": "1"
      }
      }, 
    {
      "type": "Feature",
      "geometry": {
        "type": "Point",
        "coordinates": [10.84188, 45.90876]
      },
      "properties": {
         "id": "pmb91995",
         "title": "Varone",
         "lat": "45.90876",
         "lon": "10.84188",
         "timestamp": ["1908-04-27"],
         "importance": "1"
      }
      }, 
    {
      "type": "Feature",
      "geometry": {
        "type": "Point",
        "coordinates": [16.35736, 48.21533]
      },
      "properties": {
         "id": "pmb168934",
         "title": "Frankgasse 1",
         "lat": "48.21533",
         "lon": "16.35736",
         "timestamp": ["1908-04-02", "1908-04-03", "1908-04-09", "1908-04-10", "1908-04-20", "1908-04-21", "1908-04-24"],
         "importance": "7"
      }
      }, 
    {
      "type": "Feature",
      "geometry": {
        "type": "Point",
        "coordinates": [16.368738, 48.213038]
      },
      "properties": {
         "id": "pmb207296",
         "title": "Tiefer Graben 23",
         "lat": "48.213038",
         "lon": "16.368738",
         "timestamp": ["1908-04-04"],
         "importance": "1"
      }
      }, 
    {
      "type": "Feature",
      "geometry": {
        "type": "Point",
        "coordinates": [16.372966, 48.202526]
      },
      "properties": {
         "id": "pmb232296",
         "title": "Mahlerstraße 13",
         "lat": "48.202526",
         "lon": "16.372966",
         "timestamp": ["1908-04-01"],
         "importance": "1"
      }
      }, 
    {
      "type": "Feature",
      "geometry": {
        "type": "Point",
        "coordinates": [16.33472, 48.2304]
      },
      "properties": {
         "id": "pmb168940",
         "title": "Edmund-Weiß-Gasse 7",
         "lat": "48.2304",
         "lon": "16.33472",
         "timestamp": ["1908-04-01", "1908-04-02", "1908-04-03", "1908-04-04", "1908-04-05", "1908-04-06", "1908-04-07", "1908-04-08", "1908-04-09", "1908-04-10", "1908-04-11", "1908-04-12", "1908-04-13", "1908-04-14", "1908-04-15", "1908-04-16", "1908-04-17", "1908-04-18", "1908-04-19", "1908-04-20", "1908-04-21", "1908-04-22", "1908-04-23", "1908-04-24", "1908-04-25"],
         "importance": "25"
      }
      }, 
    {
      "type": "Feature",
      "geometry": {
        "type": "Point",
        "coordinates": [16.371571, 48.208448]
      },
      "properties": {
         "id": "pmb232655",
         "title": "Goldschmiedgasse 1",
         "lat": "48.208448",
         "lon": "16.371571",
         "timestamp": ["1908-04-13"],
         "importance": "1"
      }
      }, 
    {
      "type": "Feature",
      "geometry": {
        "type": "Point",
        "coordinates": [11.35552, 46.49817]
      },
      "properties": {
         "id": "pmb233170",
         "title": "Hotel Greif",
         "lat": "46.49817",
         "lon": "11.35552",
         "timestamp": ["1908-04-30"],
         "importance": "1"
      }
      }, 
    {
      "type": "Feature",
      "geometry": {
        "type": "Point",
        "coordinates": [16.375811, 48.203191]
      },
      "properties": {
         "id": "pmb233517",
         "title": "Kaiserpanorama [Wien, Schubertring 4]",
         "lat": "48.203191",
         "lon": "16.375811",
         "timestamp": ["1908-04-06", "1908-04-13", "1908-04-25"],
         "importance": "3"
      }
      }, 
    {
      "type": "Feature",
      "geometry": {
        "type": "Point",
        "coordinates": [16.362915, 48.214518]
      },
      "properties": {
         "id": "pmb234951",
         "title": "Reisebureau Schenker & Co.",
         "lat": "48.214518",
         "lon": "16.362915",
         "timestamp": ["1908-04-21"],
         "importance": "1"
      }
      }, 
    {
      "type": "Feature",
      "geometry": {
        "type": "Point",
        "coordinates": [16.350361, 48.224472]
      },
      "properties": {
         "id": "pmb28",
         "title": "Volksoper",
         "lat": "48.224472",
         "lon": "16.350361",
         "timestamp": ["1908-04-15"],
         "importance": "1"
      }
      }, 
    {
      "type": "Feature",
      "geometry": {
        "type": "Point",
        "coordinates": [16.361942, 48.212903]
      },
      "properties": {
         "id": "pmb235692",
         "title": "Universitätsring 10",
         "lat": "48.212903",
         "lon": "16.361942",
         "timestamp": ["1908-04-02"],
         "importance": "1"
      }
      }, 
    {
      "type": "Feature",
      "geometry": {
        "type": "Point",
        "coordinates": [16.344253, 48.236143]
      },
      "properties": {
         "id": "pmb236102",
         "title": "Lannerstraße 24",
         "lat": "48.236143",
         "lon": "16.344253",
         "timestamp": ["1908-04-23"],
         "importance": "1"
      }
      }, 
    {
      "type": "Feature",
      "geometry": {
        "type": "Point",
        "coordinates": [16.37208, 48.212786]
      },
      "properties": {
         "id": "pmb236816",
         "title": "Fischerstiege 6",
         "lat": "48.212786",
         "lon": "16.37208",
         "timestamp": ["1908-04-09"],
         "importance": "1"
      }
      }, 
    {
      "type": "Feature",
      "geometry": {
        "type": "Point",
        "coordinates": [16.337548, 48.257418]
      },
      "properties": {
         "id": "pmb238216",
         "title": "Feilergasse 5",
         "lat": "48.257418",
         "lon": "16.337548",
         "timestamp": ["1908-04-08"],
         "importance": "1"
      }
      }, 
    {
      "type": "Feature",
      "geometry": {
        "type": "Point",
        "coordinates": [16.33494, 48.23365]
      },
      "properties": {
         "id": "pmb235251",
         "title": "Hasenauerstraße 59",
         "lat": "48.23365",
         "lon": "16.33494",
         "timestamp": ["1908-04-12", "1908-04-18"],
         "importance": "2"
      }
      }, 
    {
      "type": "Feature",
      "geometry": {
        "type": "Point",
        "coordinates": [16.338443, 48.234039]
      },
      "properties": {
         "id": "pmb237633",
         "title": "Hasenauerstraße 46",
         "lat": "48.234039",
         "lon": "16.338443",
         "timestamp": ["1908-04-10", "1908-04-22"],
         "importance": "2"
      }
      }, 
    {
      "type": "Feature",
      "geometry": {
        "type": "Point",
        "coordinates": [16.36265, 48.21156]
      },
      "properties": {
         "id": "pmb733",
         "title": "Allgemeine Boden-Credit-Anstalt",
         "lat": "48.21156",
         "lon": "16.36265",
         "timestamp": ["1908-04-21"],
         "importance": "1"
      }
      }, 
    {
      "type": "Feature",
      "geometry": {
        "type": "Point",
        "coordinates": [10.852736, 45.883097]
      },
      "properties": {
         "id": "pmb40812",
         "title": "Hotel du Lac",
         "lat": "45.883097",
         "lon": "10.852736",
         "timestamp": ["1908-04-26", "1908-04-27", "1908-04-28", "1908-04-29", "1908-04-30"],
         "importance": "5"
      }
      }
  ]
}