{
  "type": "FeatureCollection",
  "features": [
    {
      "type": "Feature",
      "geometry": {
        "type": "Point",
        "coordinates": [16.373056, 48.208333]
      },
      "properties": {
         "id": "pmb50",
         "title": "Wien",
         "lat": "48.208333",
         "lon": "16.373056",
         "timestamp": ["1908-01-01", "1908-01-02", "1908-01-03", "1908-01-04", "1908-01-05", "1908-01-06", "1908-01-07", "1908-01-08", "1908-01-09", "1908-01-10", "1908-01-11", "1908-01-12", "1908-01-13", "1908-01-14", "1908-01-15", "1908-01-16", "1908-01-17", "1908-01-18", "1908-01-19", "1908-01-20", "1908-01-21", "1908-01-22", "1908-01-23", "1908-01-24", "1908-01-25", "1908-01-26", "1908-01-27", "1908-01-28", "1908-01-29", "1908-01-30", "1908-01-31"],
         "importance": "31"
      }
      }, 
    {
      "type": "Feature",
      "geometry": {
        "type": "Point",
        "coordinates": [16.361139, 48.210333]
      },
      "properties": {
         "id": "pmb14",
         "title": "Burgtheater",
         "lat": "48.210333",
         "lon": "16.361139",
         "timestamp": ["1908-01-25"],
         "importance": "1"
      }
      }, 
    {
      "type": "Feature",
      "geometry": {
        "type": "Point",
        "coordinates": [16.36157, 48.20809]
      },
      "properties": {
         "id": "pmb103",
         "title": "Volksgarten",
         "lat": "48.20809",
         "lon": "16.36157",
         "timestamp": ["1908-01-24"],
         "importance": "1"
      }
      }, 
    {
      "type": "Feature",
      "geometry": {
        "type": "Point",
        "coordinates": [16.430054, 48.194558]
      },
      "properties": {
         "id": "pmb8",
         "title": "Prater",
         "lat": "48.194558",
         "lon": "16.430054",
         "timestamp": ["1908-01-14"],
         "importance": "1"
      }
      }, 
    {
      "type": "Feature",
      "geometry": {
        "type": "Point",
        "coordinates": [16.300034240016, 48.246838181084]
      },
      "properties": {
         "id": "pmb169",
         "title": "Pötzleinsdorf",
         "lat": "48.246838181084",
         "lon": "16.300034240016",
         "timestamp": ["1908-01-12"],
         "importance": "1"
      }
      }, 
    {
      "type": "Feature",
      "geometry": {
        "type": "Point",
        "coordinates": [16.361714, 48.223542]
      },
      "properties": {
         "id": "pmb199320",
         "title": "Porzellangasse 48",
         "lat": "48.223542",
         "lon": "16.361714",
         "timestamp": ["1908-01-25"],
         "importance": "1"
      }
      }, 
    {
      "type": "Feature",
      "geometry": {
        "type": "Point",
        "coordinates": [16.353571, 48.239999]
      },
      "properties": {
         "id": "pmb231906",
         "title": "Dollinergasse 8",
         "lat": "48.239999",
         "lon": "16.353571",
         "timestamp": ["1908-01-29"],
         "importance": "1"
      }
      }, 
    {
      "type": "Feature",
      "geometry": {
        "type": "Point",
        "coordinates": [16.31268, 48.2629]
      },
      "properties": {
         "id": "pmb285",
         "title": "Am Himmel",
         "lat": "48.2629",
         "lon": "16.31268",
         "timestamp": ["1908-01-15"],
         "importance": "1"
      }
      }, 
    {
      "type": "Feature",
      "geometry": {
        "type": "Point",
        "coordinates": [16.33472, 48.2304]
      },
      "properties": {
         "id": "pmb168940",
         "title": "Edmund-Weiß-Gasse 7",
         "lat": "48.2304",
         "lon": "16.33472",
         "timestamp": ["1908-01-01", "1908-01-02", "1908-01-03", "1908-01-04", "1908-01-05", "1908-01-06", "1908-01-07", "1908-01-08", "1908-01-09", "1908-01-10", "1908-01-11", "1908-01-12", "1908-01-13", "1908-01-14", "1908-01-15", "1908-01-16", "1908-01-17", "1908-01-18", "1908-01-19", "1908-01-20", "1908-01-21", "1908-01-22", "1908-01-23", "1908-01-24", "1908-01-25", "1908-01-26", "1908-01-27", "1908-01-28", "1908-01-29", "1908-01-30", "1908-01-31"],
         "importance": "31"
      }
      }, 
    {
      "type": "Feature",
      "geometry": {
        "type": "Point",
        "coordinates": [16.33641, 48.23362]
      },
      "properties": {
         "id": "pmb235132",
         "title": "Türkenschanzstraße 48",
         "lat": "48.23362",
         "lon": "16.33641",
         "timestamp": ["1908-01-21"],
         "importance": "1"
      }
      }, 
    {
      "type": "Feature",
      "geometry": {
        "type": "Point",
        "coordinates": [16.320833, 48.252222]
      },
      "properties": {
         "id": "pmb288",
         "title": "Sievering",
         "lat": "48.252222",
         "lon": "16.320833",
         "timestamp": ["1908-01-15"],
         "importance": "1"
      }
      }, 
    {
      "type": "Feature",
      "geometry": {
        "type": "Point",
        "coordinates": [16.342423, 48.22689]
      },
      "properties": {
         "id": "pmb245814",
         "title": "Magistratisches Bezirksamt für den XVIII. Bezirk",
         "lat": "48.22689",
         "lon": "16.342423",
         "timestamp": ["1908-01-17"],
         "importance": "1"
      }
      }, 
    {
      "type": "Feature",
      "geometry": {
        "type": "Point",
        "coordinates": [16.36924, 48.186273]
      },
      "properties": {
         "id": "pmb245822",
         "title": "Johann-Strauß-Gasse 36",
         "lat": "48.186273",
         "lon": "16.36924",
         "timestamp": ["1908-01-24"],
         "importance": "1"
      }
      }, 
    {
      "type": "Feature",
      "geometry": {
        "type": "Point",
        "coordinates": [16.371769, 48.203148]
      },
      "properties": {
         "id": "pmb245828",
         "title": "Walfischgasse 8",
         "lat": "48.203148",
         "lon": "16.371769",
         "timestamp": ["1908-01-25"],
         "importance": "1"
      }
      }, 
    {
      "type": "Feature",
      "geometry": {
        "type": "Point",
        "coordinates": [16.388592, 48.217485]
      },
      "properties": {
         "id": "pmb245834",
         "title": "Afrikanergasse 9",
         "lat": "48.217485",
         "lon": "16.388592",
         "timestamp": ["1908-01-26"],
         "importance": "1"
      }
      }, 
    {
      "type": "Feature",
      "geometry": {
        "type": "Point",
        "coordinates": [16.361853, 48.21494]
      },
      "properties": {
         "id": "pmb245839",
         "title": "J. Eisenstein & Co. Buchhandlung und Antiquariat",
         "lat": "48.21494",
         "lon": "16.361853",
         "timestamp": ["1908-01-27"],
         "importance": "1"
      }
      }
  ]
}