{
  "type": "FeatureCollection",
  "features": [
    {
      "type": "Feature",
      "geometry": {
        "type": "Point",
        "coordinates": [16.373056, 48.208333]
      },
      "properties": {
         "id": "pmb50",
         "title": "Wien",
         "lat": "48.208333",
         "lon": "16.373056",
         "timestamp": ["1908-09-14", "1908-09-15", "1908-09-16", "1908-09-17", "1908-09-18", "1908-09-19", "1908-09-20", "1908-09-21", "1908-09-22", "1908-09-23", "1908-09-24", "1908-09-26", "1908-09-27", "1908-09-28", "1908-09-29", "1908-09-30"],
         "importance": "16", 
        "wikipedia": "https://de.wikipedia.org/wiki/Wien", 
        "wikidata": "http://www.wikidata.org/entity/Q1741"
      }
      }, 
    {
      "type": "Feature",
      "geometry": {
        "type": "Point",
        "coordinates": [11.57549, 48.13743]
      },
      "properties": {
         "id": "pmb45258",
         "title": "München",
         "lat": "48.13743",
         "lon": "11.57549",
         "timestamp": ["1908-09-07", "1908-09-08", "1908-09-09", "1908-09-10", "1908-09-11", "1908-09-12", "1908-09-13"],
         "importance": "7", 
        "wikipedia": "https://de.wikipedia.org/wiki/M%C3%BCnchen", 
        "wikidata": "http://www.wikidata.org/entity/Q1726"
      }
      }, 
    {
      "type": "Feature",
      "geometry": {
        "type": "Point",
        "coordinates": [11.33982, 46.49067]
      },
      "properties": {
         "id": "pmb40260",
         "title": "Bozen",
         "lat": "46.49067",
         "lon": "11.33982",
         "timestamp": ["1908-09-02", "1908-09-03", "1908-09-05", "1908-09-06"],
         "importance": "4", 
        "wikipedia": "https://de.wikipedia.org/wiki/Bozen", 
        "wikidata": "http://www.wikidata.org/entity/Q6526"
      }
      }, 
    {
      "type": "Feature",
      "geometry": {
        "type": "Point",
        "coordinates": [16.276509500872, 48.241960480337]
      },
      "properties": {
         "id": "pmb176",
         "title": "Schwarzenbergpark",
         "lat": "48.241960480337",
         "lon": "16.276509500872",
         "timestamp": ["1908-09-15", "1908-09-20"],
         "importance": "2", 
        "wikipedia": "https://de.wikipedia.org/wiki/Schwarzenbergpark", 
        "wikidata": "http://www.wikidata.org/entity/Q2253835"
      }
      }, 
    {
      "type": "Feature",
      "geometry": {
        "type": "Point",
        "coordinates": [16.370064, 48.202791]
      },
      "properties": {
         "id": "pmb205",
         "title": "Hotel Bristol Wien",
         "lat": "48.202791",
         "lon": "16.370064",
         "timestamp": ["1908-09-22"],
         "importance": "1", 
        "wikipedia": "https://de.wikipedia.org/wiki/Hotel_Bristol_(Wien)", 
        "wiengeschichtewiki": "https://www.geschichtewiki.wien.gv.at/Special:URIResolver/?curid=7575", 
        "wikidata": "http://www.wikidata.org/entity/Q37865047"
      }
      }, 
    {
      "type": "Feature",
      "geometry": {
        "type": "Point",
        "coordinates": [16.35736, 48.21533]
      },
      "properties": {
         "id": "pmb168934",
         "title": "Frankgasse 1",
         "lat": "48.21533",
         "lon": "16.35736",
         "timestamp": ["1908-09-17", "1908-09-18", "1908-09-22"],
         "importance": "3"
      }
      }, 
    {
      "type": "Feature",
      "geometry": {
        "type": "Point",
        "coordinates": [11.578786, 48.139944]
      },
      "properties": {
         "id": "pmb635",
         "title": "Residenztheater München",
         "lat": "48.139944",
         "lon": "11.578786",
         "timestamp": ["1908-09-10"],
         "importance": "1"
      }
      }, 
    {
      "type": "Feature",
      "geometry": {
        "type": "Point",
        "coordinates": [16.347492624475, 48.216264483348]
      },
      "properties": {
         "id": "pmb89",
         "title": "Sanatorium Loew",
         "lat": "48.216264483348",
         "lon": "16.347492624475",
         "timestamp": ["1908-09-22"],
         "importance": "1"
      }
      }, 
    {
      "type": "Feature",
      "geometry": {
        "type": "Point",
        "coordinates": [15.80915, 47.69255]
      },
      "properties": {
         "id": "pmb470",
         "title": "Edlach",
         "lat": "47.69255",
         "lon": "15.80915",
         "timestamp": ["1908-09-24", "1908-09-25", "1908-09-26"],
         "importance": "3", 
        "wikipedia": "https://de.wikipedia.org/wiki/Edlach_an_der_Rax", 
        "wikidata": "http://www.wikidata.org/entity/Q106938523"
      }
      }, 
    {
      "type": "Feature",
      "geometry": {
        "type": "Point",
        "coordinates": [11.6, 46.316666666667]
      },
      "properties": {
         "id": "pmb247508",
         "title": "Predazzo",
         "lat": "46.316666666667",
         "lon": "11.6",
         "timestamp": ["1908-09-03"],
         "importance": "1", 
        "wikipedia": "https://de.wikipedia.org/wiki/Predazzo", 
        "wikidata": "http://www.wikidata.org/entity/Q300010"
      }
      }, 
    {
      "type": "Feature",
      "geometry": {
        "type": "Point",
        "coordinates": [11.73333, 46.3]
      },
      "properties": {
         "id": "pmb91431",
         "title": "Paneveggio",
         "lat": "46.3",
         "lon": "11.73333",
         "timestamp": ["1908-09-03"],
         "importance": "1", 
        "wikidata": "http://www.wikidata.org/entity/Q3893222"
      }
      }, 
    {
      "type": "Feature",
      "geometry": {
        "type": "Point",
        "coordinates": [11.8, 46.26667]
      },
      "properties": {
         "id": "pmb44311",
         "title": "San Martino di Castrozza",
         "lat": "46.26667",
         "lon": "11.8",
         "timestamp": ["1908-09-03", "1908-09-04", "1908-09-05"],
         "importance": "3"
      }
      }, 
    {
      "type": "Feature",
      "geometry": {
        "type": "Point",
        "coordinates": [11.36266523227271, 46.50083719693118]
      },
      "properties": {
         "id": "pmb50817",
         "title": "Hotel Stiegl",
         "lat": "46.50083719693118",
         "lon": "11.36266523227271",
         "timestamp": ["1908-09-02", "1908-09-03"],
         "importance": "2"
      }
      }, 
    {
      "type": "Feature",
      "geometry": {
        "type": "Point",
        "coordinates": [15.707639, 47.605239]
      },
      "properties": {
         "id": "pmb714",
         "title": "Hotel Edlacherhof",
         "lat": "47.605239",
         "lon": "15.707639",
         "timestamp": ["1908-09-24"],
         "importance": "1"
      }
      }, 
    {
      "type": "Feature",
      "geometry": {
        "type": "Point",
        "coordinates": [15.76452, 47.67383]
      },
      "properties": {
         "id": "pmb49072",
         "title": "Prein an der Rax",
         "lat": "47.67383",
         "lon": "15.76452",
         "timestamp": ["1908-09-25"],
         "importance": "1"
      }
      }, 
    {
      "type": "Feature",
      "geometry": {
        "type": "Point",
        "coordinates": [15.71667, 47.7]
      },
      "properties": {
         "id": "pmb91572",
         "title": "Raxalpe",
         "lat": "47.7",
         "lon": "15.71667",
         "timestamp": ["1908-09-25", "1908-09-26"],
         "importance": "2"
      }
      }, 
    {
      "type": "Feature",
      "geometry": {
        "type": "Point",
        "coordinates": [16.293147561818, 48.251927827778]
      },
      "properties": {
         "id": "pmb540",
         "title": "Hameau",
         "lat": "48.251927827778",
         "lon": "16.293147561818",
         "timestamp": ["1908-09-15", "1908-09-20"],
         "importance": "2", 
        "wikipedia": "https://de.wikipedia.org/wiki/Hameau_(Wien)", 
        "wikidata": "http://www.wikidata.org/entity/Q21874781"
      }
      }, 
    {
      "type": "Feature",
      "geometry": {
        "type": "Point",
        "coordinates": [11.53088, 46.59712]
      },
      "properties": {
         "id": "pmb40343",
         "title": "Ponte Gardena",
         "lat": "46.59712",
         "lon": "11.53088",
         "timestamp": ["1908-09-02"],
         "importance": "1", 
        "wikipedia": "https://de.wikipedia.org/wiki/Waidbruck", 
        "wikidata": "http://www.wikidata.org/entity/Q474145"
      }
      }, 
    {
      "type": "Feature",
      "geometry": {
        "type": "Point",
        "coordinates": [16.33472, 48.2304]
      },
      "properties": {
         "id": "pmb168940",
         "title": "Edmund-Weiß-Gasse 7",
         "lat": "48.2304",
         "lon": "16.33472",
         "timestamp": ["1908-09-14", "1908-09-15", "1908-09-16", "1908-09-17", "1908-09-18", "1908-09-19", "1908-09-20", "1908-09-21", "1908-09-22", "1908-09-23", "1908-09-24", "1908-09-26", "1908-09-27", "1908-09-28", "1908-09-29", "1908-09-30"],
         "importance": "16"
      }
      }, 
    {
      "type": "Feature",
      "geometry": {
        "type": "Point",
        "coordinates": [16.371571, 48.208448]
      },
      "properties": {
         "id": "pmb232655",
         "title": "Goldschmiedgasse 1",
         "lat": "48.208448",
         "lon": "16.371571",
         "timestamp": ["1908-09-17"],
         "importance": "1"
      }
      }, 
    {
      "type": "Feature",
      "geometry": {
        "type": "Point",
        "coordinates": [15.7621, 47.7132]
      },
      "properties": {
         "id": "pmb234277",
         "title": "Otto-Schutzhaus",
         "lat": "47.7132",
         "lon": "15.7621",
         "timestamp": ["1908-09-25"],
         "importance": "1", 
        "wikipedia": "https://de.wikipedia.org/wiki/Otto-Schutzhaus", 
        "wikidata": "http://www.wikidata.org/entity/Q1772278"
      }
      }, 
    {
      "type": "Feature",
      "geometry": {
        "type": "Point",
        "coordinates": [15.68948, 47.68897]
      },
      "properties": {
         "id": "pmb40884",
         "title": "Rax",
         "lat": "47.68897",
         "lon": "15.68948",
         "timestamp": ["1908-09-25"],
         "importance": "1", 
        "wikipedia": "https://de.wikipedia.org/wiki/Rax", 
        "wikidata": "http://www.wikidata.org/entity/Q149533"
      }
      }, 
    {
      "type": "Feature",
      "geometry": {
        "type": "Point",
        "coordinates": [15.7042, 47.6886]
      },
      "properties": {
         "id": "pmb234288",
         "title": "Karl-Ludwig-Haus",
         "lat": "47.6886",
         "lon": "15.7042",
         "timestamp": ["1908-09-25"],
         "importance": "1", 
        "wikipedia": "https://de.wikipedia.org/wiki/Karl-Ludwig-Haus", 
        "wikidata": "http://www.wikidata.org/entity/Q1730075"
      }
      }, 
    {
      "type": "Feature",
      "geometry": {
        "type": "Point",
        "coordinates": [16.353889, 48.1975]
      },
      "properties": {
         "id": "pmb52023",
         "title": "Apollo-Theater [Wien]",
         "lat": "48.1975",
         "lon": "16.353889",
         "timestamp": ["1908-09-19"],
         "importance": "1", 
        "wikipedia": "https://de.wikipedia.org/wiki/Apollo-Theater_(Wien)", 
        "wiengeschichtewiki": "https://www.geschichtewiki.wien.gv.at/Apollokino", 
        "wikidata": "http://www.wikidata.org/entity/Q618966"
      }
      }, 
    {
      "type": "Feature",
      "geometry": {
        "type": "Point",
        "coordinates": [16.33494, 48.23365]
      },
      "properties": {
         "id": "pmb235251",
         "title": "Hasenauerstraße 59",
         "lat": "48.23365",
         "lon": "16.33494",
         "timestamp": ["1908-09-27"],
         "importance": "1"
      }
      }, 
    {
      "type": "Feature",
      "geometry": {
        "type": "Point",
        "coordinates": [16.338443, 48.234039]
      },
      "properties": {
         "id": "pmb237633",
         "title": "Hasenauerstraße 46",
         "lat": "48.234039",
         "lon": "16.338443",
         "timestamp": ["1908-09-17"],
         "importance": "1"
      }
      }, 
    {
      "type": "Feature",
      "geometry": {
        "type": "Point",
        "coordinates": [11.581667, 48.138889]
      },
      "properties": {
         "id": "pmb485",
         "title": "Hotel Vier Jahreszeiten",
         "lat": "48.138889",
         "lon": "11.581667",
         "timestamp": ["1908-09-07", "1908-09-08", "1908-09-09", "1908-09-10", "1908-09-11", "1908-09-12", "1908-09-13"],
         "importance": "7", 
        "wikipedia": "https://de.wikipedia.org/wiki/Hotel_Vier_Jahreszeiten_(M%C3%BCnchen)", 
        "wikidata": "http://www.wikidata.org/entity/Q1388047"
      }
      }, 
    {
      "type": "Feature",
      "geometry": {
        "type": "Point",
        "coordinates": [11.591, 48.1432]
      },
      "properties": {
         "id": "pmb233217",
         "title": "Bayerisches Nationalmuseum",
         "lat": "48.1432",
         "lon": "11.591",
         "timestamp": ["1908-09-11"],
         "importance": "1", 
        "wikipedia": "https://de.wikipedia.org/wiki/Bayerisches_Nationalmuseum", 
        "wikidata": "http://www.wikidata.org/entity/Q631056"
      }
      }, 
    {
      "type": "Feature",
      "geometry": {
        "type": "Point",
        "coordinates": [11.55868, 46.54133]
      },
      "properties": {
         "id": "pmb988",
         "title": "Seis am Schlern",
         "lat": "46.54133",
         "lon": "11.55868",
         "timestamp": ["1908-09-01", "1908-09-02"],
         "importance": "2", 
        "wikipedia": "https://de.wikipedia.org/wiki/Seis_am_Schlern", 
        "wikidata": "http://www.wikidata.org/entity/Q638380"
      }
      }, 
    {
      "type": "Feature",
      "geometry": {
        "type": "Point",
        "coordinates": [11.560026, 46.54555]
      },
      "properties": {
         "id": "pmb467",
         "title": "Villa Heufler",
         "lat": "46.54555",
         "lon": "11.560026",
         "timestamp": ["1908-09-01", "1908-09-02"],
         "importance": "2"
      }
      }, 
    {
      "type": "Feature",
      "geometry": {
        "type": "Point",
        "coordinates": [11.53663, 46.55231]
      },
      "properties": {
         "id": "pmb247376",
         "title": "Laranzer Wald",
         "lat": "46.55231",
         "lon": "11.53663",
         "timestamp": ["1908-09-01"],
         "importance": "1"
      }
      }, 
    {
      "type": "Feature",
      "geometry": {
        "type": "Point",
        "coordinates": [11.35345, 46.491277]
      },
      "properties": {
         "id": "pmb92584",
         "title": "Virgl",
         "lat": "46.491277",
         "lon": "11.35345",
         "timestamp": ["1908-09-02"],
         "importance": "1", 
        "wikipedia": "https://de.wikipedia.org/wiki/Virgl", 
        "wikidata": "http://www.wikidata.org/entity/Q4014548"
      }
      }, 
    {
      "type": "Feature",
      "geometry": {
        "type": "Point",
        "coordinates": [11.356784, 46.498636]
      },
      "properties": {
         "id": "pmb247505",
         "title": "Hotel Bristol Bozen",
         "lat": "46.498636",
         "lon": "11.356784",
         "timestamp": ["1908-09-02", "1908-09-05", "1908-09-06"],
         "importance": "3"
      }
      }, 
    {
      "type": "Feature",
      "geometry": {
        "type": "Point",
        "coordinates": [11.6026343821, 46.312656066]
      },
      "properties": {
         "id": "pmb92739",
         "title": "Nave d‘Oro",
         "lat": "46.312656066",
         "lon": "11.6026343821",
         "timestamp": ["1908-09-03"],
         "importance": "1"
      }
      }, 
    {
      "type": "Feature",
      "geometry": {
        "type": "Point",
        "coordinates": [11.80187, 46.2617]
      },
      "properties": {
         "id": "pmb247513",
         "title": "Hotel Panzer",
         "lat": "46.2617",
         "lon": "11.80187",
         "timestamp": ["1908-09-03", "1908-09-04", "1908-09-05"],
         "importance": "3"
      }
      }, 
    {
      "type": "Feature",
      "geometry": {
        "type": "Point",
        "coordinates": [11.5434784, 48.132027]
      },
      "properties": {
         "id": "pmb247526",
         "title": "Ausstellung München 1908",
         "lat": "48.132027",
         "lon": "11.5434784",
         "timestamp": ["1908-09-07", "1908-09-08", "1908-09-09", "1908-09-11"],
         "importance": "4"
      }
      }, 
    {
      "type": "Feature",
      "geometry": {
        "type": "Point",
        "coordinates": [11.5445, 48.12987]
      },
      "properties": {
         "id": "pmb247522",
         "title": "Marionettentheater Münchner Künstler",
         "lat": "48.12987",
         "lon": "11.5445",
         "timestamp": ["1908-09-07", "1908-09-08", "1908-09-11"],
         "importance": "3"
      }
      }, 
    {
      "type": "Feature",
      "geometry": {
        "type": "Point",
        "coordinates": [11.578786, 48.139944]
      },
      "properties": {
         "id": "pmb9",
         "title": "Königlich Bayerische Hoftheater",
         "lat": "48.139944",
         "lon": "11.578786",
         "timestamp": ["1908-09-08", "1908-09-10"],
         "importance": "2", 
        "wikipedia": "https://de.wikipedia.org/wiki/Bayerisches_Staatsschauspiel", 
        "wikidata": "http://www.wikidata.org/entity/Q812446"
      }
      }, 
    {
      "type": "Feature",
      "geometry": {
        "type": "Point",
        "coordinates": [11.605591, 48.138986]
      },
      "properties": {
         "id": "pmb703",
         "title": "Prinzregenten-Theater",
         "lat": "48.138986",
         "lon": "11.605591",
         "timestamp": ["1908-09-09"],
         "importance": "1", 
        "wikipedia": "https://de.wikipedia.org/wiki/Prinzregententheater", 
        "wikidata": "http://www.wikidata.org/entity/Q456586"
      }
      }, 
    {
      "type": "Feature",
      "geometry": {
        "type": "Point",
        "coordinates": [11.57059, 48.13819]
      },
      "properties": {
         "id": "pmb247550",
         "title": "Heinrich Traut, photographisches Atelier",
         "lat": "48.13819",
         "lon": "11.57059",
         "timestamp": ["1908-09-10", "1908-09-13"],
         "importance": "2"
      }
      }, 
    {
      "type": "Feature",
      "geometry": {
        "type": "Point",
        "coordinates": [11.587323, 48.155839]
      },
      "properties": {
         "id": "pmb247554",
         "title": "Gedonstraße 6",
         "lat": "48.155839",
         "lon": "11.587323",
         "timestamp": ["1908-09-10"],
         "importance": "1"
      }
      }, 
    {
      "type": "Feature",
      "geometry": {
        "type": "Point",
        "coordinates": [11.540555, 48.1315291]
      },
      "properties": {
         "id": "pmb247571",
         "title": "Restauration Ausstellung München 1908",
         "lat": "48.1315291",
         "lon": "11.540555",
         "timestamp": ["1908-09-11"],
         "importance": "1"
      }
      }, 
    {
      "type": "Feature",
      "geometry": {
        "type": "Point",
        "coordinates": [11.5682, 48.1412]
      },
      "properties": {
         "id": "pmb247574",
         "title": "Bernheimer-Haus",
         "lat": "48.1412",
         "lon": "11.5682",
         "timestamp": ["1908-09-12"],
         "importance": "1", 
        "wikipedia": "https://de.wikipedia.org/wiki/Bernheimer-Haus", 
        "wikidata": "http://www.wikidata.org/entity/Q826485"
      }
      }, 
    {
      "type": "Feature",
      "geometry": {
        "type": "Point",
        "coordinates": [11.54448808, 48.13190865]
      },
      "properties": {
         "id": "pmb247577",
         "title": "Münchner Künstlertheater",
         "lat": "48.13190865",
         "lon": "11.54448808",
         "timestamp": ["1908-09-12"],
         "importance": "1", 
        "wikipedia": "https://de.wikipedia.org/wiki/M%C3%BCnchner_K%C3%BCnstlertheater", 
        "wikidata": "http://www.wikidata.org/entity/Q86698295"
      }
      }, 
    {
      "type": "Feature",
      "geometry": {
        "type": "Point",
        "coordinates": [11.555, 48.140833]
      },
      "properties": {
         "id": "pmb247583",
         "title": "Hauptbahnhof München",
         "lat": "48.140833",
         "lon": "11.555",
         "timestamp": ["1908-09-13"],
         "importance": "1", 
        "wikipedia": "https://de.wikipedia.org/wiki/M%C3%BCnchen_Hauptbahnhof", 
        "wikidata": "http://www.wikidata.org/entity/Q254647"
      }
      }, 
    {
      "type": "Feature",
      "geometry": {
        "type": "Point",
        "coordinates": [11.574007, 48.124321]
      },
      "properties": {
         "id": "pmb247586",
         "title": "Frühlingsanlagen München",
         "lat": "48.124321",
         "lon": "11.574007",
         "timestamp": ["1908-09-13"],
         "importance": "1", 
        "wikipedia": "https://de.wikipedia.org/wiki/Fr%C3%BChlingsanlagen", 
        "wikidata": "http://www.wikidata.org/entity/Q15056218"
      }
      }, 
    {
      "type": "Feature",
      "geometry": {
        "type": "Point",
        "coordinates": [16.348104, 48.235011]
      },
      "properties": {
         "id": "pmb247592",
         "title": "Cottage-Lyzeum XIX., Gymnasiumstraße 79",
         "lat": "48.235011",
         "lon": "16.348104",
         "timestamp": ["1908-09-18", "1908-09-23"],
         "importance": "2"
      }
      }, 
    {
      "type": "Feature",
      "geometry": {
        "type": "Point",
        "coordinates": [16.37694, 48.200559]
      },
      "properties": {
         "id": "pmb626",
         "title": "Kunstschau Wien 1908",
         "lat": "48.200559",
         "lon": "16.37694",
         "timestamp": ["1908-09-19"],
         "importance": "1", 
        "wikipedia": "https://de.wikipedia.org/wiki/Kunstschau_Wien_1908", 
        "wikidata": "http://www.wikidata.org/entity/Q1792619"
      }
      }, 
    {
      "type": "Feature",
      "geometry": {
        "type": "Point",
        "coordinates": [15.794244, 47.701238]
      },
      "properties": {
         "id": "pmb247657",
         "title": "Knappenhof",
         "lat": "47.701238",
         "lon": "15.794244",
         "timestamp": ["1908-09-24", "1908-09-25"],
         "importance": "2"
      }
      }, 
    {
      "type": "Feature",
      "geometry": {
        "type": "Point",
        "coordinates": [15.7102816, 47.690825]
      },
      "properties": {
         "id": "pmb247670",
         "title": "Schlangenweg",
         "lat": "47.690825",
         "lon": "15.7102816",
         "timestamp": ["1908-09-25"],
         "importance": "1"
      }
      }, 
    {
      "type": "Feature",
      "geometry": {
        "type": "Point",
        "coordinates": [16.35842, 48.24317]
      },
      "properties": {
         "id": "pmb92600",
         "title": "Wertheimsteinpark",
         "lat": "48.24317",
         "lon": "16.35842",
         "timestamp": ["1908-09-27"],
         "importance": "1", 
        "wikipedia": "https://de.wikipedia.org/wiki/Wertheimsteinpark", 
        "wikidata": "http://www.wikidata.org/entity/Q1450584"
      }
      }
  ]
}