{
  "type": "FeatureCollection",
  "features": [
    {
      "type": "Feature", 
      "geometry": {
        "type": "LineString", 
        "coordinates": [
            [15.8241, 47.64224], 
            [16.3709701, 48.2017407], 
            [16.373056, 48.208333], 
            [16.347492624475, 48.216264483348], 
            [16.33716, 48.23188]
          ]
      },
      "properties": {
        "name": "29. August 1911"
      }
    },
    {
      "type": "Feature",
      "geometry": {
        "type": "Point",
        "coordinates": [15.8241, 47.64224]
      },
      "properties": {
         "id": "pmb189",
         "title": "Semmering",
         "lat": "47.64224",
         "lon": "15.8241",
         "timestamp": ["1911-08-29"],
         "importance": "1", 
        "wikipedia": "https://de.wikipedia.org/wiki/Semmering_(Nieder%C3%B6sterreich)", 
        "wikidata": "http://www.wikidata.org/entity/Q659891"
      }
      },
    {
      "type": "Feature",
      "geometry": {
        "type": "Point",
        "coordinates": [16.373056, 48.208333]
      },
      "properties": {
         "id": "pmb50",
         "title": "Wien",
         "lat": "48.208333",
         "lon": "16.373056",
         "timestamp": ["1911-08-29"],
         "importance": "1", 
        "wikipedia": "https://de.wikipedia.org/wiki/Wien", 
        "wikidata": "http://www.wikidata.org/entity/Q1741"
      }
      },
    {
      "type": "Feature",
      "geometry": {
        "type": "Point",
        "coordinates": [16.3709701, 48.2017407]
      },
      "properties": {
         "id": "pmb46",
         "title": "Café Kremser",
         "lat": "48.2017407",
         "lon": "16.3709701",
         "timestamp": ["1911-08-29"],
         "importance": "1"
      }
      },
    {
      "type": "Feature",
      "geometry": {
        "type": "Point",
        "coordinates": [16.347492624475, 48.216264483348]
      },
      "properties": {
         "id": "pmb89",
         "title": "Sanatorium Loew",
         "lat": "48.216264483348",
         "lon": "16.347492624475",
         "timestamp": ["1911-08-29"],
         "importance": "1"
      }
      },
    {
      "type": "Feature",
      "geometry": {
        "type": "Point",
        "coordinates": [16.33716, 48.23188]
      },
      "properties": {
         "id": "pmb168815",
         "title": "Sternwartestraße 71",
         "lat": "48.23188",
         "lon": "16.33716",
         "timestamp": ["1911-08-29"],
         "importance": "1"
      }
      }
  ]
}