{
  "type": "FeatureCollection",
  "features": [
    {
      "type": "Feature", 
      "geometry": {
        "type": "LineString", 
        "coordinates": [
            [4.88139, 52.36361], 
            [4.8663888888889, 52.356944444444], 
            [4.90591, 52.359719], 
            [4.903153, 52.368004], 
            [4.891513, 52.370364]
          ]
      },
      "properties": {
        "name": "23. Mai 1914"
      }
    },
    {
      "type": "Feature",
      "geometry": {
        "type": "Point",
        "coordinates": [
          4.90591, 52.359719
        ]
      },
      "properties": {
        "title": "Amstelhotel",
        "timestamp": ["1914-05-23"],
        "id": "https://pmb.acdh.oeaw.ac.at/entity/pmb245732/", 
        "wikipedia": "https://de.wikipedia.org/wiki/Amstelhotel"
      }
      },
    {
      "type": "Feature",
      "geometry": {
        "type": "Point",
        "coordinates": [
          4.8663888888889, 52.356944444444
        ]
      },
      "properties": {
        "title": "Vondelpark",
        "timestamp": ["1914-05-23"],
        "id": "https://pmb.acdh.oeaw.ac.at/entity/pmb245735/", 
        "wikipedia": "https://de.wikipedia.org/wiki/Vondelpark"
      }
      },
    {
      "type": "Feature",
      "geometry": {
        "type": "Point",
        "coordinates": [
          4.903153, 52.368004
        ]
      },
      "properties": {
        "title": "Jodenbuurt",
        "timestamp": ["1914-05-23"],
        "id": "https://pmb.acdh.oeaw.ac.at/entity/pmb245738/", 
        "wikipedia": "https://de.wikipedia.org/wiki/Jodenbuurt"
      }
      },
    {
      "type": "Feature",
      "geometry": {
        "type": "Point",
        "coordinates": [
          4.891513, 52.370364
        ]
      },
      "properties": {
        "title": "Kalverstraat",
        "timestamp": ["1914-05-23"],
        "id": "https://pmb.acdh.oeaw.ac.at/entity/pmb92325/"
      }
      },
    {
      "type": "Feature",
      "geometry": {
        "type": "Point",
        "coordinates": [
          4.88139, 52.36361
        ]
      },
      "properties": {
        "title": "Café Américain",
        "timestamp": ["1914-05-23"],
        "id": "https://pmb.acdh.oeaw.ac.at/entity/pmb245743/"
      }
      }
  ]
}