{
  "type": "FeatureCollection",
  "features": [
    {
      "type": "Feature", 
      "geometry": {
        "type": "LineString", 
        "coordinates": [
            [16.333568462613, 48.235119783861], 
            [16.33716, 48.23188], 
            [16.342154562605, 48.250804274577], 
            [16.332896, 48.253174], 
            [16.322222222222, 48.263611111111], 
            [16.31268, 48.2629]
          ]
      },
      "properties": {
        "name": "1. Januar 1914"
      }
    },
    {
      "type": "Feature",
      "geometry": {
        "type": "Point",
        "coordinates": [16.322222222222, 48.263611111111]
      },
      "properties": {
         "id": "pmb194903",
         "title": "Am Kobenzl",
         "lat": "48.263611111111",
         "lon": "16.322222222222",
         "timestamp": ["1914-01-01"],
         "importance": "1", 
        "wikipedia": "https://de.wikipedia.org/wiki/Reisenberg_(Wien)", 
        "wikidata": "http://www.wikidata.org/entity/Q2141902"
      }
      },
    {
      "type": "Feature",
      "geometry": {
        "type": "Point",
        "coordinates": [16.31268, 48.2629]
      },
      "properties": {
         "id": "pmb285",
         "title": "Am Himmel",
         "lat": "48.2629",
         "lon": "16.31268",
         "timestamp": ["1914-01-01"],
         "importance": "1", 
        "wikidata": "http://www.wikidata.org/entity/Q2840760"
      }
      },
    {
      "type": "Feature",
      "geometry": {
        "type": "Point",
        "coordinates": [16.342154562605, 48.250804274577]
      },
      "properties": {
         "id": "pmb225",
         "title": "Grinzing",
         "lat": "48.250804274577",
         "lon": "16.342154562605",
         "timestamp": ["1914-01-01"],
         "importance": "1"
      }
      },
    {
      "type": "Feature",
      "geometry": {
        "type": "Point",
        "coordinates": [16.332896, 48.253174]
      },
      "properties": {
         "id": "pmb92316",
         "title": "Kaasgraben",
         "lat": "48.253174",
         "lon": "16.332896",
         "timestamp": ["1914-01-01"],
         "importance": "1", 
        "wikidata": "http://www.wikidata.org/entity/Q131720151"
      }
      },
    {
      "type": "Feature",
      "geometry": {
        "type": "Point",
        "coordinates": [16.333568462613, 48.235119783861]
      },
      "properties": {
         "id": "pmb113",
         "title": "Türkenschanzpark",
         "lat": "48.235119783861",
         "lon": "16.333568462613",
         "timestamp": ["1914-01-01"],
         "importance": "1"
      }
      },
    {
      "type": "Feature",
      "geometry": {
        "type": "Point",
        "coordinates": [16.33716, 48.23188]
      },
      "properties": {
         "id": "pmb168815",
         "title": "Sternwartestraße 71",
         "lat": "48.23188",
         "lon": "16.33716",
         "timestamp": ["1914-01-01"],
         "importance": "1"
      }
      }
  ]
}