{
  "type": "FeatureCollection",
  "features": [
    {
      "type": "Feature", 
      "geometry": {
        "type": "LineString", 
        "coordinates": [
            [16.333568462613, 48.235119783861], 
            [16.33716, 48.23188], 
            [16.342154562605, 48.250804274577], 
            [16.332896, 48.253174], 
            [16.322222222222, 48.263611111111], 
            [16.31268, 48.2629]
          ]
      },
      "properties": {
        "name": "1. Januar 1914"
      }
    },
    {
      "type": "Feature",
      "geometry": {
        "type": "Point",
        "coordinates": [
          16.322222222222, 48.263611111111
        ]
      },
      "properties": {
        "title": "Am Kobenzl",
        "timestamp": ["1914-01-01"],
        "id": "https://pmb.acdh.oeaw.ac.at/entity/pmb194903/", 
        "wikipedia": "https://de.wikipedia.org/wiki/Reisenberg_(Wien)"
      }
      },
    {
      "type": "Feature",
      "geometry": {
        "type": "Point",
        "coordinates": [
          16.31268, 48.2629
        ]
      },
      "properties": {
        "title": "Am Himmel",
        "timestamp": ["1914-01-01"],
        "id": "https://pmb.acdh.oeaw.ac.at/entity/pmb285/"
      }
      },
    {
      "type": "Feature",
      "geometry": {
        "type": "Point",
        "coordinates": [
          16.342154562605, 48.250804274577
        ]
      },
      "properties": {
        "title": "Grinzing",
        "timestamp": ["1914-01-01"],
        "id": "https://pmb.acdh.oeaw.ac.at/entity/pmb225/"
      }
      },
    {
      "type": "Feature",
      "geometry": {
        "type": "Point",
        "coordinates": [
          16.332896, 48.253174
        ]
      },
      "properties": {
        "title": "Kaasgraben",
        "timestamp": ["1914-01-01"],
        "id": "https://pmb.acdh.oeaw.ac.at/entity/pmb92316/"
      }
      },
    {
      "type": "Feature",
      "geometry": {
        "type": "Point",
        "coordinates": [
          16.333568462613, 48.235119783861
        ]
      },
      "properties": {
        "title": "Türkenschanzpark",
        "timestamp": ["1914-01-01"],
        "id": "https://pmb.acdh.oeaw.ac.at/entity/pmb113/"
      }
      },
    {
      "type": "Feature",
      "geometry": {
        "type": "Point",
        "coordinates": [
          16.33716, 48.23188
        ]
      },
      "properties": {
        "title": "Sternwartestraße 71",
        "timestamp": ["1914-01-01"],
        "id": "https://pmb.acdh.oeaw.ac.at/entity/pmb168815/"
      }
      }
  ]
}