{
  "type": "FeatureCollection",
  "features": [
    {
      "type": "Feature",
      "geometry": {
        "type": "Point",
        "coordinates": [13.77189, 47.6417]
      },
      "properties": {
         "id": "pmb106",
         "title": "Seewirt",
         "lat": "47.6417",
         "lon": "13.77189",
         "timestamp": ["1916-06-02"],
         "importance": "1"
      }
      }, 
    {
      "type": "Feature",
      "geometry": {
        "type": "Point",
        "coordinates": [13.78453, 47.6698]
      },
      "properties": {
         "id": "pmb34401",
         "title": "Altaussee",
         "lat": "47.6698",
         "lon": "13.78453",
         "timestamp": ["1916-06-01", "1916-06-02", "1916-06-03"],
         "importance": "3", 
        "wikipedia": "https://de.wikipedia.org/wiki/Altaussee", 
        "wikidata": "http://www.wikidata.org/entity/Q262951"
      }
      }, 
    {
      "type": "Feature",
      "geometry": {
        "type": "Point",
        "coordinates": [16.373056, 48.208333]
      },
      "properties": {
         "id": "pmb50",
         "title": "Wien",
         "lat": "48.208333",
         "lon": "16.373056",
         "timestamp": ["1916-06-05", "1916-06-06", "1916-06-07", "1916-06-08", "1916-06-09", "1916-06-10", "1916-06-11", "1916-06-12", "1916-06-13", "1916-06-14", "1916-06-15", "1916-06-16", "1916-06-17", "1916-06-18", "1916-06-19", "1916-06-20", "1916-06-21", "1916-06-22", "1916-06-23", "1916-06-24", "1916-06-25", "1916-06-26", "1916-06-27", "1916-06-28", "1916-06-29", "1916-06-30"],
         "importance": "26", 
        "wikipedia": "https://de.wikipedia.org/wiki/Wien", 
        "wikidata": "http://www.wikidata.org/entity/Q1741"
      }
      }, 
    {
      "type": "Feature",
      "geometry": {
        "type": "Point",
        "coordinates": [16.361139, 48.210333]
      },
      "properties": {
         "id": "pmb14",
         "title": "Burgtheater",
         "lat": "48.210333",
         "lon": "16.361139",
         "timestamp": ["1916-06-08", "1916-06-26"],
         "importance": "2"
      }
      }, 
    {
      "type": "Feature",
      "geometry": {
        "type": "Point",
        "coordinates": [16.33255, 48.27617]
      },
      "properties": {
         "id": "pmb574",
         "title": "Kahlenberg",
         "lat": "48.27617",
         "lon": "16.33255",
         "timestamp": ["1916-06-12"],
         "importance": "1", 
        "wikipedia": "https://de.wikipedia.org/wiki/Kahlenberg", 
        "wiengeschichtewiki": "https://www.geschichtewiki.wien.gv.at/Special:URIResolver/?curid=22912", 
        "wikidata": "http://www.wikidata.org/entity/Q697119"
      }
      }, 
    {
      "type": "Feature",
      "geometry": {
        "type": "Point",
        "coordinates": [16.337778, 48.196667]
      },
      "properties": {
         "id": "pmb184918",
         "title": "Westbahnhof",
         "lat": "48.196667",
         "lon": "16.337778",
         "timestamp": ["1916-06-23"],
         "importance": "1", 
        "wikipedia": "https://de.wikipedia.org/wiki/Wien_Westbahnhof", 
        "wikidata": "http://www.wikidata.org/entity/Q698145"
      }
      }, 
    {
      "type": "Feature",
      "geometry": {
        "type": "Point",
        "coordinates": [16.36822905564414, 48.209495110694924]
      },
      "properties": {
         "id": "pmb51242",
         "title": "Hotel Müller",
         "lat": "48.209495110694924",
         "lon": "16.36822905564414",
         "timestamp": ["1916-06-14"],
         "importance": "1"
      }
      }, 
    {
      "type": "Feature",
      "geometry": {
        "type": "Point",
        "coordinates": [16.402222, 48.214722]
      },
      "properties": {
         "id": "pmb685",
         "title": "Wurstelprater",
         "lat": "48.214722",
         "lon": "16.402222",
         "timestamp": ["1916-06-30"],
         "importance": "1", 
        "wikipedia": "https://de.wikipedia.org/wiki/Wurstelprater", 
        "wiengeschichtewiki": "https://www.geschichtewiki.wien.gv.at/Special:URIResolver/?curid=10997", 
        "wikidata": "http://www.wikidata.org/entity/Q3487269"
      }
      }, 
    {
      "type": "Feature",
      "geometry": {
        "type": "Point",
        "coordinates": [16.333568462613, 48.235119783861]
      },
      "properties": {
         "id": "pmb113",
         "title": "Türkenschanzpark",
         "lat": "48.235119783861",
         "lon": "16.333568462613",
         "timestamp": ["1916-06-10"],
         "importance": "1"
      }
      }, 
    {
      "type": "Feature",
      "geometry": {
        "type": "Point",
        "coordinates": [16.276509500872, 48.241960480337]
      },
      "properties": {
         "id": "pmb176",
         "title": "Schwarzenbergpark",
         "lat": "48.241960480337",
         "lon": "16.276509500872",
         "timestamp": ["1916-06-11", "1916-06-22", "1916-06-25"],
         "importance": "3", 
        "wikipedia": "https://de.wikipedia.org/wiki/Schwarzenbergpark", 
        "wikidata": "http://www.wikidata.org/entity/Q2253835"
      }
      }, 
    {
      "type": "Feature",
      "geometry": {
        "type": "Point",
        "coordinates": [16.300034240016, 48.246838181084]
      },
      "properties": {
         "id": "pmb169",
         "title": "Pötzleinsdorf",
         "lat": "48.246838181084",
         "lon": "16.300034240016",
         "timestamp": ["1916-06-08", "1916-06-11", "1916-06-17", "1916-06-18", "1916-06-25"],
         "importance": "5"
      }
      }, 
    {
      "type": "Feature",
      "geometry": {
        "type": "Point",
        "coordinates": [16.342154562605, 48.250804274577]
      },
      "properties": {
         "id": "pmb225",
         "title": "Grinzing",
         "lat": "48.250804274577",
         "lon": "16.342154562605",
         "timestamp": ["1916-06-12"],
         "importance": "1"
      }
      }, 
    {
      "type": "Feature",
      "geometry": {
        "type": "Point",
        "coordinates": [16.258056, 48.201667]
      },
      "properties": {
         "id": "pmb271",
         "title": "Hütteldorf",
         "lat": "48.201667",
         "lon": "16.258056",
         "timestamp": ["1916-06-29"],
         "importance": "1", 
        "wikipedia": "https://de.wikipedia.org/wiki/H%C3%BCtteldorf", 
        "wikidata": "http://www.wikidata.org/entity/Q1423660"
      }
      }, 
    {
      "type": "Feature",
      "geometry": {
        "type": "Point",
        "coordinates": [14.28333, 48.3]
      },
      "properties": {
         "id": "pmb332",
         "title": "Linz",
         "lat": "48.3",
         "lon": "14.28333",
         "timestamp": ["1916-06-04", "1916-06-05"],
         "importance": "2", 
        "wikipedia": "https://de.wikipedia.org/wiki/Linz", 
        "wikidata": "http://www.wikidata.org/entity/Q41329"
      }
      }, 
    {
      "type": "Feature",
      "geometry": {
        "type": "Point",
        "coordinates": [16.33787, 48.19653]
      },
      "properties": {
         "id": "pmb438",
         "title": "Westbahnhof-Restaurant",
         "lat": "48.19653",
         "lon": "16.33787",
         "timestamp": ["1916-06-05"],
         "importance": "1"
      }
      }, 
    {
      "type": "Feature",
      "geometry": {
        "type": "Point",
        "coordinates": [16.23036, 48.246719]
      },
      "properties": {
         "id": "pmb539",
         "title": "Sophienalpe",
         "lat": "48.246719",
         "lon": "16.23036",
         "timestamp": ["1916-06-11", "1916-06-29"],
         "importance": "2", 
        "wikipedia": "https://de.wikipedia.org/wiki/Sophienalpe", 
        "wikidata": "http://www.wikidata.org/entity/Q1787021"
      }
      }, 
    {
      "type": "Feature",
      "geometry": {
        "type": "Point",
        "coordinates": [16.41575606941028, 48.20508551408161]
      },
      "properties": {
         "id": "pmb53159",
         "title": "Hauptallee",
         "lat": "48.20508551408161",
         "lon": "16.41575606941028",
         "timestamp": ["1916-06-30"],
         "importance": "1", 
        "wikipedia": "https://de.wikipedia.org/wiki/Hauptallee_(Wien)", 
        "wikidata": "http://www.wikidata.org/entity/Q1248317"
      }
      }, 
    {
      "type": "Feature",
      "geometry": {
        "type": "Point",
        "coordinates": [16.2911, 48.2553]
      },
      "properties": {
         "id": "pmb242",
         "title": "Salmannsdorf",
         "lat": "48.2553",
         "lon": "16.2911",
         "timestamp": ["1916-06-29"],
         "importance": "1", 
        "wikipedia": "https://de.wikipedia.org/wiki/Salmannsdorf_(Wien)", 
        "wikidata": "http://www.wikidata.org/entity/Q1255079"
      }
      }, 
    {
      "type": "Feature",
      "geometry": {
        "type": "Point",
        "coordinates": [16.293147561818, 48.251927827778]
      },
      "properties": {
         "id": "pmb540",
         "title": "Hameau",
         "lat": "48.251927827778",
         "lon": "16.293147561818",
         "timestamp": ["1916-06-22"],
         "importance": "1", 
        "wikipedia": "https://de.wikipedia.org/wiki/Hameau_(Wien)", 
        "wikidata": "http://www.wikidata.org/entity/Q21874781"
      }
      }, 
    {
      "type": "Feature",
      "geometry": {
        "type": "Point",
        "coordinates": [14.287495, 48.307291]
      },
      "properties": {
         "id": "pmb130",
         "title": "Hotel Weinzinger",
         "lat": "48.307291",
         "lon": "14.287495",
         "timestamp": ["1916-06-04"],
         "importance": "1", 
        "wikipedia": "https://de.wikipedia.org/wiki/Hotel_Weinzinger", 
        "wikidata": "http://www.wikidata.org/entity/Q30854300"
      }
      }, 
    {
      "type": "Feature",
      "geometry": {
        "type": "Point",
        "coordinates": [16.375811, 48.203191]
      },
      "properties": {
         "id": "pmb233517",
         "title": "Kaiserpanorama [Wien, Schubertring 4]",
         "lat": "48.203191",
         "lon": "16.375811",
         "timestamp": ["1916-06-14", "1916-06-21"],
         "importance": "2"
      }
      }, 
    {
      "type": "Feature",
      "geometry": {
        "type": "Point",
        "coordinates": [16.33641, 48.23362]
      },
      "properties": {
         "id": "pmb235132",
         "title": "Türkenschanzstraße 48",
         "lat": "48.23362",
         "lon": "16.33641",
         "timestamp": ["1916-06-27"],
         "importance": "1"
      }
      }, 
    {
      "type": "Feature",
      "geometry": {
        "type": "Point",
        "coordinates": [16.296768550115, 48.248935842869]
      },
      "properties": {
         "id": "pmb243",
         "title": "Sommerhaidenweg",
         "lat": "48.248935842869",
         "lon": "16.296768550115",
         "timestamp": ["1916-06-25"],
         "importance": "1", 
        "wikipedia": "https://de.wikipedia.org/wiki/Sommerhaidenweg", 
        "wikidata": "http://www.wikidata.org/entity/Q2300521"
      }
      }, 
    {
      "type": "Feature",
      "geometry": {
        "type": "Point",
        "coordinates": [16.320833, 48.252222]
      },
      "properties": {
         "id": "pmb288",
         "title": "Sievering",
         "lat": "48.252222",
         "lon": "16.320833",
         "timestamp": ["1916-06-18"],
         "importance": "1", 
        "wikipedia": "https://de.wikipedia.org/wiki/Sievering", 
        "wikidata": "http://www.wikidata.org/entity/Q1692038"
      }
      }, 
    {
      "type": "Feature",
      "geometry": {
        "type": "Point",
        "coordinates": [16.3589845, 48.2195962]
      },
      "properties": {
         "id": "pmb34399",
         "title": "Neue Wiener Bühne",
         "lat": "48.2195962",
         "lon": "16.3589845",
         "timestamp": ["1916-06-15", "1916-06-16", "1916-06-21"],
         "importance": "3"
      }
      }, 
    {
      "type": "Feature",
      "geometry": {
        "type": "Point",
        "coordinates": [16.33716, 48.23188]
      },
      "properties": {
         "id": "pmb168815",
         "title": "Sternwartestraße 71",
         "lat": "48.23188",
         "lon": "16.33716",
         "timestamp": ["1916-06-05", "1916-06-06", "1916-06-07", "1916-06-08", "1916-06-09", "1916-06-10", "1916-06-11", "1916-06-12", "1916-06-13", "1916-06-14", "1916-06-15", "1916-06-16", "1916-06-17", "1916-06-18", "1916-06-19", "1916-06-20", "1916-06-21", "1916-06-22", "1916-06-23", "1916-06-24", "1916-06-25", "1916-06-26", "1916-06-27", "1916-06-28", "1916-06-29", "1916-06-30"],
         "importance": "26"
      }
      }, 
    {
      "type": "Feature",
      "geometry": {
        "type": "Point",
        "coordinates": [16.35137, 48.21346]
      },
      "properties": {
         "id": "pmb232800",
         "title": "Laudongasse 12",
         "lat": "48.21346",
         "lon": "16.35137",
         "timestamp": ["1916-06-25", "1916-06-28"],
         "importance": "2"
      }
      }
  ]
}