{
  "type": "FeatureCollection",
  "features": [
    {
      "type": "Feature", 
      "geometry": {
        "type": "LineString", 
        "coordinates": [
            [16.327625, 48.234219], 
            [16.333568462613, 48.235119783861], 
            [16.33716, 48.23188], 
            [16.342154562605, 48.250804274577], 
            [16.34618, 48.27805], 
            [16.327352524714, 48.267145622591]
          ]
      },
      "properties": {
        "name": "15. Mai 1921"
      }
    },
    {
      "type": "Feature",
      "geometry": {
        "type": "Point",
        "coordinates": [
          16.327352524714, 48.267145622591
        ]
      },
      "properties": {
        "title": "Krapfenwaldl",
        "timestamp": ["1921-05-15"],
        "pmb": "https://pmb.acdh.oeaw.ac.at/entity/pmb301/"
      }
      },
    {
      "type": "Feature",
      "geometry": {
        "type": "Point",
        "coordinates": [
          16.34618, 48.27805
        ]
      },
      "properties": {
        "title": "Leopoldsberg",
        "timestamp": ["1921-05-15"],
        "pmb": "https://pmb.acdh.oeaw.ac.at/entity/pmb59364/"
      }
      },
    {
      "type": "Feature",
      "geometry": {
        "type": "Point",
        "coordinates": [
          16.342154562605, 48.250804274577
        ]
      },
      "properties": {
        "title": "Grinzing",
        "timestamp": ["1921-05-15"],
        "pmb": "https://pmb.acdh.oeaw.ac.at/entity/pmb225/"
      }
      },
    {
      "type": "Feature",
      "geometry": {
        "type": "Point",
        "coordinates": [
          16.333568462613, 48.235119783861
        ]
      },
      "properties": {
        "title": "Türkenschanzpark",
        "timestamp": ["1921-05-15"],
        "pmb": "https://pmb.acdh.oeaw.ac.at/entity/pmb113/"
      }
      },
    {
      "type": "Feature",
      "geometry": {
        "type": "Point",
        "coordinates": [
          16.327625, 48.234219
        ]
      },
      "properties": {
        "title": "Gersthofer Elitetheater",
        "timestamp": ["1921-05-15"],
        "pmb": "https://pmb.acdh.oeaw.ac.at/entity/pmb190567/", 
        "wiengeschichtewiki": "https://www.geschichtewiki.wien.gv.at/Gersthofer_Elitetheater"
      }
      },
    {
      "type": "Feature",
      "geometry": {
        "type": "Point",
        "coordinates": [
          16.33716, 48.23188
        ]
      },
      "properties": {
        "title": "Sternwartestraße 71",
        "timestamp": ["1921-05-15"],
        "pmb": "https://pmb.acdh.oeaw.ac.at/entity/pmb168815/"
      }
      }
  ]
}