{
  "type": "FeatureCollection",
  "features": [
    {
      "type": "Feature", 
      "geometry": {
        "type": "LineString", 
        "coordinates": [
            [16.327625, 48.234219], 
            [16.333568462613, 48.235119783861], 
            [16.33716, 48.23188], 
            [16.342154562605, 48.250804274577], 
            [16.34618, 48.27805], 
            [16.327352524714, 48.267145622591]
          ]
      },
      "properties": {
        "name": "15. Mai 1921"
      }
    },
    {
      "type": "Feature",
      "geometry": {
        "type": "Point",
        "coordinates": [16.327352524714, 48.267145622591]
      },
      "properties": {
         "id": "pmb301",
         "title": "Krapfenwaldl",
         "lat": "48.267145622591",
         "lon": "16.327352524714",
         "timestamp": ["1921-05-15"],
         "importance": "1"
      }
      },
    {
      "type": "Feature",
      "geometry": {
        "type": "Point",
        "coordinates": [16.34618, 48.27805]
      },
      "properties": {
         "id": "pmb59364",
         "title": "Leopoldsberg",
         "lat": "48.27805",
         "lon": "16.34618",
         "timestamp": ["1921-05-15"],
         "importance": "1"
      }
      },
    {
      "type": "Feature",
      "geometry": {
        "type": "Point",
        "coordinates": [16.342154562605, 48.250804274577]
      },
      "properties": {
         "id": "pmb225",
         "title": "Grinzing",
         "lat": "48.250804274577",
         "lon": "16.342154562605",
         "timestamp": ["1921-05-15"],
         "importance": "1"
      }
      },
    {
      "type": "Feature",
      "geometry": {
        "type": "Point",
        "coordinates": [16.333568462613, 48.235119783861]
      },
      "properties": {
         "id": "pmb113",
         "title": "Türkenschanzpark",
         "lat": "48.235119783861",
         "lon": "16.333568462613",
         "timestamp": ["1921-05-15"],
         "importance": "1"
      }
      },
    {
      "type": "Feature",
      "geometry": {
        "type": "Point",
        "coordinates": [16.327625, 48.234219]
      },
      "properties": {
         "id": "pmb190567",
         "title": "Gersthofer Elitetheater",
         "lat": "48.234219",
         "lon": "16.327625",
         "timestamp": ["1921-05-15"],
         "importance": "1", 
        "wiengeschichtewiki": "https://www.geschichtewiki.wien.gv.at/Gersthofer_Elitetheater"
      }
      },
    {
      "type": "Feature",
      "geometry": {
        "type": "Point",
        "coordinates": [16.33716, 48.23188]
      },
      "properties": {
         "id": "pmb168815",
         "title": "Sternwartestraße 71",
         "lat": "48.23188",
         "lon": "16.33716",
         "timestamp": ["1921-05-15"],
         "importance": "1"
      }
      }
  ]
}