{
  "type": "FeatureCollection",
  "features": [
    {
      "type": "Feature", 
      "geometry": {
        "type": "LineString", 
        "coordinates": [
            [8.23023, 48.67467], 
            [8.23055556, 48.64527778], 
            [8.2394118, 48.658502], 
            [8.24958, 48.7128], 
            [8.26017, 48.74668], 
            [8.238308, 48.749936]
          ]
      },
      "properties": {
        "name": "2. Juli 1923"
      }
    },
    {
      "type": "Feature",
      "geometry": {
        "type": "Point",
        "coordinates": [
          8.238308, 48.749936
        ]
      },
      "properties": {
        "title": "Herchenbachstraße 26",
        "timestamp": ["1923-07-02"],
        "id": "https://pmb.acdh.oeaw.ac.at/entity/pmb244962/"
      }
      },
    {
      "type": "Feature",
      "geometry": {
        "type": "Point",
        "coordinates": [
          8.26017, 48.74668
        ]
      },
      "properties": {
        "title": "Lichtental [Baden-Baden]",
        "timestamp": ["1923-07-02"],
        "id": "https://pmb.acdh.oeaw.ac.at/entity/pmb61100/"
      }
      },
    {
      "type": "Feature",
      "geometry": {
        "type": "Point",
        "coordinates": [
          8.24958, 48.7128
        ]
      },
      "properties": {
        "title": "Geroldsauer Wasserfall",
        "timestamp": ["1923-07-02"],
        "id": "https://pmb.acdh.oeaw.ac.at/entity/pmb245178/", 
        "wikipedia": "https://de.wikipedia.org/wiki/Geroldsauer_Wasserfall"
      }
      },
    {
      "type": "Feature",
      "geometry": {
        "type": "Point",
        "coordinates": [
          8.23023, 48.67467
        ]
      },
      "properties": {
        "title": "Bühlerhöhe",
        "timestamp": ["1923-07-02"],
        "id": "https://pmb.acdh.oeaw.ac.at/entity/pmb90409/"
      }
      },
    {
      "type": "Feature",
      "geometry": {
        "type": "Point",
        "coordinates": [
          8.23055556, 48.64527778
        ]
      },
      "properties": {
        "title": "Hundseck",
        "timestamp": ["1923-07-02"],
        "id": "https://pmb.acdh.oeaw.ac.at/entity/pmb245070/", 
        "wikipedia": "https://de.wikipedia.org/wiki/Hundseck"
      }
      },
    {
      "type": "Feature",
      "geometry": {
        "type": "Point",
        "coordinates": [
          8.2394118, 48.658502
        ]
      },
      "properties": {
        "title": "Kurhaus Sand",
        "timestamp": ["1923-07-02"],
        "id": "https://pmb.acdh.oeaw.ac.at/entity/pmb245157/"
      }
      }
  ]
}