{
  "type": "FeatureCollection",
  "features": [
    {
      "type": "Feature", 
      "geometry": {
        "type": "LineString", 
        "coordinates": [
            [16.327625, 48.234219], 
            [16.33716, 48.23188], 
            [16.373056, 48.208333], 
            [16.342154562605, 48.250804274577], 
            [16.33286, 48.25644], 
            [16.32464, 48.257868]
          ]
      },
      "properties": {
        "name": "30. November 1923"
      }
    },
    {
      "type": "Feature",
      "geometry": {
        "type": "Point",
        "coordinates": [16.373056, 48.208333]
      },
      "properties": {
         "id": "pmb50",
         "title": "Wien",
         "lat": "48.208333",
         "lon": "16.373056",
         "timestamp": ["1923-11-30"],
         "importance": "1", 
        "wikipedia": "https://de.wikipedia.org/wiki/Wien", 
        "wikidata": "http://www.wikidata.org/entity/Q1741"
      }
      },
    {
      "type": "Feature",
      "geometry": {
        "type": "Point",
        "coordinates": [16.32464, 48.257868]
      },
      "properties": {
         "id": "pmb92285",
         "title": "Himmelstraße",
         "lat": "48.257868",
         "lon": "16.32464",
         "timestamp": ["1923-11-30"],
         "importance": "1", 
        "wiengeschichtewiki": "https://www.geschichtewiki.wien.gv.at/Himmelstra%C3%9Fe"
      }
      },
    {
      "type": "Feature",
      "geometry": {
        "type": "Point",
        "coordinates": [16.327625, 48.234219]
      },
      "properties": {
         "id": "pmb190567",
         "title": "Gersthofer Elitetheater",
         "lat": "48.234219",
         "lon": "16.327625",
         "timestamp": ["1923-11-30"],
         "importance": "1", 
        "wiengeschichtewiki": "https://www.geschichtewiki.wien.gv.at/Gersthofer_Elitetheater"
      }
      },
    {
      "type": "Feature",
      "geometry": {
        "type": "Point",
        "coordinates": [16.342154562605, 48.250804274577]
      },
      "properties": {
         "id": "pmb225",
         "title": "Grinzing",
         "lat": "48.250804274577",
         "lon": "16.342154562605",
         "timestamp": ["1923-11-30"],
         "importance": "1"
      }
      },
    {
      "type": "Feature",
      "geometry": {
        "type": "Point",
        "coordinates": [16.33286, 48.25644]
      },
      "properties": {
         "id": "pmb246009",
         "title": "Himmelstraße 55",
         "lat": "48.25644",
         "lon": "16.33286",
         "timestamp": ["1923-11-30"],
         "importance": "1", 
        "wikidata": "http://www.wikidata.org/entity/Q131720045"
      }
      },
    {
      "type": "Feature",
      "geometry": {
        "type": "Point",
        "coordinates": [16.33716, 48.23188]
      },
      "properties": {
         "id": "pmb168815",
         "title": "Sternwartestraße 71",
         "lat": "48.23188",
         "lon": "16.33716",
         "timestamp": ["1923-11-30"],
         "importance": "1"
      }
      }
  ]
}