{
  "type": "FeatureCollection",
  "features": [
    {
      "type": "Feature", 
      "geometry": {
        "type": "LineString", 
        "coordinates": [
            [8.23023, 48.67467], 
            [8.23055556, 48.64527778], 
            [8.2394118, 48.658502], 
            [8.24958, 48.7128], 
            [8.26017, 48.74668], 
            [8.238308, 48.749936]
          ]
      },
      "properties": {
        "name": "2. Juli 1923"
      }
    },
    {
      "type": "Feature",
      "geometry": {
        "type": "Point",
        "coordinates": [8.238308, 48.749936]
      },
      "properties": {
         "id": "pmb244962",
         "title": "Herchenbachstraße 26",
         "lat": "48.749936",
         "lon": "8.238308",
         "timestamp": ["1923-07-02"],
         "importance": "1"
      }
      },
    {
      "type": "Feature",
      "geometry": {
        "type": "Point",
        "coordinates": [8.26017, 48.74668]
      },
      "properties": {
         "id": "pmb61100",
         "title": "Lichtental [Baden-Baden]",
         "lat": "48.74668",
         "lon": "8.26017",
         "timestamp": ["1923-07-02"],
         "importance": "1"
      }
      },
    {
      "type": "Feature",
      "geometry": {
        "type": "Point",
        "coordinates": [8.24958, 48.7128]
      },
      "properties": {
         "id": "pmb245178",
         "title": "Geroldsauer Wasserfall",
         "lat": "48.7128",
         "lon": "8.24958",
         "timestamp": ["1923-07-02"],
         "importance": "1", 
        "wikipedia": "https://de.wikipedia.org/wiki/Geroldsauer_Wasserfall", 
        "wikidata": "http://www.wikidata.org/entity/Q1514618"
      }
      },
    {
      "type": "Feature",
      "geometry": {
        "type": "Point",
        "coordinates": [8.23023, 48.67467]
      },
      "properties": {
         "id": "pmb90409",
         "title": "Bühlerhöhe",
         "lat": "48.67467",
         "lon": "8.23023",
         "timestamp": ["1923-07-02"],
         "importance": "1"
      }
      },
    {
      "type": "Feature",
      "geometry": {
        "type": "Point",
        "coordinates": [8.23055556, 48.64527778]
      },
      "properties": {
         "id": "pmb245070",
         "title": "Hundseck",
         "lat": "48.64527778",
         "lon": "8.23055556",
         "timestamp": ["1923-07-02"],
         "importance": "1", 
        "wikipedia": "https://de.wikipedia.org/wiki/Hundseck", 
        "wikidata": "http://www.wikidata.org/entity/Q15056774"
      }
      },
    {
      "type": "Feature",
      "geometry": {
        "type": "Point",
        "coordinates": [8.2394118, 48.658502]
      },
      "properties": {
         "id": "pmb245157",
         "title": "Kurhaus Sand",
         "lat": "48.658502",
         "lon": "8.2394118",
         "timestamp": ["1923-07-02"],
         "importance": "1"
      }
      }
  ]
}