{
  "type": "FeatureCollection",
  "features": [
    {
      "type": "Feature", 
      "geometry": {
        "type": "LineString", 
        "coordinates": [
            [8.238308, 48.749936], 
            [8.23933, 48.74979], 
            [8.244227, 48.748585], 
            [8.24167, 48.7644], 
            [8.23975, 48.7606]
          ]
      },
      "properties": {
        "name": "7. August 1923"
      }
    },
    {
      "type": "Feature",
      "geometry": {
        "type": "Point",
        "coordinates": [8.23975, 48.7606]
      },
      "properties": {
         "id": "pmb228",
         "title": "Baden-Baden",
         "lat": "48.7606",
         "lon": "8.23975",
         "timestamp": ["1923-08-07"],
         "importance": "1", 
        "wikipedia": "https://de.wikipedia.org/wiki/Baden-Baden", 
        "wikidata": "http://www.wikidata.org/entity/Q4100"
      }
      },
    {
      "type": "Feature",
      "geometry": {
        "type": "Point",
        "coordinates": [8.23933, 48.74979]
      },
      "properties": {
         "id": "pmb491",
         "title": "Herchenbachstraße",
         "lat": "48.74979",
         "lon": "8.23933",
         "timestamp": ["1923-08-07"],
         "importance": "1"
      }
      },
    {
      "type": "Feature",
      "geometry": {
        "type": "Point",
        "coordinates": [8.244227, 48.748585]
      },
      "properties": {
         "id": "pmb389",
         "title": "Gunzenbach-Hof",
         "lat": "48.748585",
         "lon": "8.244227",
         "timestamp": ["1923-08-07"],
         "importance": "1"
      }
      },
    {
      "type": "Feature",
      "geometry": {
        "type": "Point",
        "coordinates": [8.24167, 48.7644]
      },
      "properties": {
         "id": "pmb245235",
         "title": "Neues Schloss Baden-Baden",
         "lat": "48.7644",
         "lon": "8.24167",
         "timestamp": ["1923-08-07"],
         "importance": "1", 
        "wikipedia": "https://de.wikipedia.org/wiki/Neues_Schloss_(Baden-Baden)", 
        "wikidata": "http://www.wikidata.org/entity/Q1980382"
      }
      },
    {
      "type": "Feature",
      "geometry": {
        "type": "Point",
        "coordinates": [8.238308, 48.749936]
      },
      "properties": {
         "id": "pmb244962",
         "title": "Herchenbachstraße 26",
         "lat": "48.749936",
         "lon": "8.238308",
         "timestamp": ["1923-08-07"],
         "importance": "1"
      }
      }
  ]
}