{
  "type": "FeatureCollection",
  "features": [
    {
      "type": "Feature", 
      "geometry": {
        "type": "LineString", 
        "coordinates": [
            [16.28610371233, 48.233119188484], 
            [16.261773522319, 48.186111063958], 
            [16.33716, 48.23188], 
            [16.300034240016, 48.246838181084], 
            [16.293147561818, 48.251927827778], 
            [16.2911, 48.2553]
          ]
      },
      "properties": {
        "name": "1. Juni 1924"
      }
    },
    {
      "type": "Feature",
      "geometry": {
        "type": "Point",
        "coordinates": [16.261773522319, 48.186111063958]
      },
      "properties": {
         "id": "pmb620",
         "title": "Winzerstraße",
         "lat": "48.186111063958",
         "lon": "16.261773522319",
         "timestamp": ["1924-06-01"],
         "importance": "1"
      }
      },
    {
      "type": "Feature",
      "geometry": {
        "type": "Point",
        "coordinates": [16.2911, 48.2553]
      },
      "properties": {
         "id": "pmb242",
         "title": "Salmannsdorf",
         "lat": "48.2553",
         "lon": "16.2911",
         "timestamp": ["1924-06-01"],
         "importance": "1", 
        "wikipedia": "https://de.wikipedia.org/wiki/Salmannsdorf_(Wien)", 
        "wikidata": "http://www.wikidata.org/entity/Q1255079"
      }
      },
    {
      "type": "Feature",
      "geometry": {
        "type": "Point",
        "coordinates": [16.293147561818, 48.251927827778]
      },
      "properties": {
         "id": "pmb540",
         "title": "Hameau",
         "lat": "48.251927827778",
         "lon": "16.293147561818",
         "timestamp": ["1924-06-01"],
         "importance": "1", 
        "wikipedia": "https://de.wikipedia.org/wiki/Hameau_(Wien)", 
        "wikidata": "http://www.wikidata.org/entity/Q21874781"
      }
      },
    {
      "type": "Feature",
      "geometry": {
        "type": "Point",
        "coordinates": [16.28610371233, 48.233119188484]
      },
      "properties": {
         "id": "pmb170",
         "title": "Neuwaldegg",
         "lat": "48.233119188484",
         "lon": "16.28610371233",
         "timestamp": ["1924-06-01"],
         "importance": "1"
      }
      },
    {
      "type": "Feature",
      "geometry": {
        "type": "Point",
        "coordinates": [16.300034240016, 48.246838181084]
      },
      "properties": {
         "id": "pmb169",
         "title": "Pötzleinsdorf",
         "lat": "48.246838181084",
         "lon": "16.300034240016",
         "timestamp": ["1924-06-01"],
         "importance": "1"
      }
      },
    {
      "type": "Feature",
      "geometry": {
        "type": "Point",
        "coordinates": [16.33716, 48.23188]
      },
      "properties": {
         "id": "pmb168815",
         "title": "Sternwartestraße 71",
         "lat": "48.23188",
         "lon": "16.33716",
         "timestamp": ["1924-06-01"],
         "importance": "1"
      }
      }
  ]
}