{
  "type": "FeatureCollection",
  "features": [
    {
      "type": "Feature", 
      "geometry": {
        "type": "LineString", 
        "coordinates": [
            [16.29273, 48.23975], 
            [16.33716, 48.23188], 
            [16.2911, 48.2553], 
            [16.300034240016, 48.246838181084], 
            [16.296768550115, 48.248935842869]
          ]
      },
      "properties": {
        "name": "21. April 1924"
      }
    },
    {
      "type": "Feature",
      "geometry": {
        "type": "Point",
        "coordinates": [
          16.296768550115, 48.248935842869
        ]
      },
      "properties": {
        "title": "Sommerhaidenweg",
        "timestamp": ["1924-04-21"],
        "id": "pmb243", 
        "wikipedia": "https://de.wikipedia.org/wiki/Sommerhaidenweg"
      }
      },
    {
      "type": "Feature",
      "geometry": {
        "type": "Point",
        "coordinates": [
          16.2911, 48.2553
        ]
      },
      "properties": {
        "title": "Salmannsdorf",
        "timestamp": ["1924-04-21"],
        "id": "pmb242", 
        "wikipedia": "https://de.wikipedia.org/wiki/Salmannsdorf_(Wien)"
      }
      },
    {
      "type": "Feature",
      "geometry": {
        "type": "Point",
        "coordinates": [
          16.29273, 48.23975
        ]
      },
      "properties": {
        "title": "Schafberg [Wien|",
        "timestamp": ["1924-04-21"],
        "id": "pmb532", 
        "wikipedia": "https://de.wikipedia.org/wiki/Schafberg_(Wien)"
      }
      },
    {
      "type": "Feature",
      "geometry": {
        "type": "Point",
        "coordinates": [
          16.300034240016, 48.246838181084
        ]
      },
      "properties": {
        "title": "Pötzleinsdorf",
        "timestamp": ["1924-04-21"],
        "id": "pmb169"
      }
      },
    {
      "type": "Feature",
      "geometry": {
        "type": "Point",
        "coordinates": [
          16.33716, 48.23188
        ]
      },
      "properties": {
        "title": "Sternwartestraße 71",
        "timestamp": ["1924-04-21"],
        "id": "pmb168815"
      }
      }
  ]
}