{
  "type": "FeatureCollection",
  "features": [
    {
      "type": "Feature",
      "geometry": {
        "type": "Point",
        "coordinates": [16.373056, 48.208333]
      },
      "properties": {
         "id": "pmb50",
         "title": "Wien",
         "lat": "48.208333",
         "lon": "16.373056",
         "timestamp": ["1927-04-01", "1927-04-02", "1927-04-03", "1927-04-04", "1927-04-05", "1927-04-06", "1927-04-07", "1927-04-08", "1927-04-09", "1927-04-10", "1927-04-11", "1927-04-12", "1927-04-13", "1927-04-14", "1927-04-15", "1927-04-16", "1927-04-17", "1927-04-18", "1927-04-19", "1927-04-20"],
         "importance": "20", 
        "wikipedia": "https://de.wikipedia.org/wiki/Wien", 
        "wikidata": "http://www.wikidata.org/entity/Q1741"
      }
      }, 
    {
      "type": "Feature",
      "geometry": {
        "type": "Point",
        "coordinates": [16.3691, 48.203]
      },
      "properties": {
         "id": "pmb15",
         "title": "Oper",
         "lat": "48.203",
         "lon": "16.3691",
         "timestamp": ["1927-04-01", "1927-04-10"],
         "importance": "2", 
        "wikipedia": "https://de.wikipedia.org/wiki/Wiener_Staatsoper", 
        "wikidata": "http://www.wikidata.org/entity/Q209937"
      }
      }, 
    {
      "type": "Feature",
      "geometry": {
        "type": "Point",
        "coordinates": [16.361139, 48.210333]
      },
      "properties": {
         "id": "pmb14",
         "title": "Burgtheater",
         "lat": "48.210333",
         "lon": "16.361139",
         "timestamp": ["1927-04-06", "1927-04-14"],
         "importance": "2"
      }
      }, 
    {
      "type": "Feature",
      "geometry": {
        "type": "Point",
        "coordinates": [16.33255, 48.27617]
      },
      "properties": {
         "id": "pmb574",
         "title": "Kahlenberg",
         "lat": "48.27617",
         "lon": "16.33255",
         "timestamp": ["1927-04-18"],
         "importance": "1", 
        "wikipedia": "https://de.wikipedia.org/wiki/Kahlenberg", 
        "wiengeschichtewiki": "https://www.geschichtewiki.wien.gv.at/Special:URIResolver/?curid=22912", 
        "wikidata": "http://www.wikidata.org/entity/Q697119"
      }
      }, 
    {
      "type": "Feature",
      "geometry": {
        "type": "Point",
        "coordinates": [16.275701, 48.219421]
      },
      "properties": {
         "id": "pmb90687",
         "title": "Gallitzinberg",
         "lat": "48.219421",
         "lon": "16.275701",
         "timestamp": ["1927-04-03", "1927-04-10"],
         "importance": "2", 
        "wikipedia": "https://de.wikipedia.org/wiki/Gallitzinberg", 
        "wikidata": "http://www.wikidata.org/entity/Q874710"
      }
      }, 
    {
      "type": "Feature",
      "geometry": {
        "type": "Point",
        "coordinates": [16.36471, 48.200556]
      },
      "properties": {
         "id": "pmb97",
         "title": "Zum Weingartl",
         "lat": "48.200556",
         "lon": "16.36471",
         "timestamp": ["1927-04-08"],
         "importance": "1"
      }
      }, 
    {
      "type": "Feature",
      "geometry": {
        "type": "Point",
        "coordinates": [12.33265, 45.43713]
      },
      "properties": {
         "id": "pmb462",
         "title": "Venedig",
         "lat": "45.43713",
         "lon": "12.33265",
         "timestamp": ["1927-04-21", "1927-04-22", "1927-04-23", "1927-04-24", "1927-04-25", "1927-04-26", "1927-04-27", "1927-04-28", "1927-04-29", "1927-04-30"],
         "importance": "10", 
        "wikipedia": "https://de.wikipedia.org/wiki/Venedig", 
        "wikidata": "http://www.wikidata.org/entity/Q641"
      }
      }, 
    {
      "type": "Feature",
      "geometry": {
        "type": "Point",
        "coordinates": [12.33835, 45.43411]
      },
      "properties": {
         "id": "pmb261",
         "title": "Piazza San Marco",
         "lat": "45.43411",
         "lon": "12.33835",
         "timestamp": ["1927-04-21", "1927-04-22", "1927-04-23", "1927-04-25", "1927-04-26", "1927-04-27"],
         "importance": "6", 
        "wikipedia": "https://de.wikipedia.org/wiki/Markusplatz", 
        "wikidata": "http://www.wikidata.org/entity/Q217527"
      }
      }, 
    {
      "type": "Feature",
      "geometry": {
        "type": "Point",
        "coordinates": [12.339857, 45.433696]
      },
      "properties": {
         "id": "pmb149",
         "title": "Palazzo Ducale",
         "lat": "45.433696",
         "lon": "12.339857",
         "timestamp": ["1927-04-26"],
         "importance": "1", 
        "wikipedia": "https://de.wikipedia.org/wiki/Dogenpalast", 
        "wikidata": "http://www.wikidata.org/entity/Q189883"
      }
      }, 
    {
      "type": "Feature",
      "geometry": {
        "type": "Point",
        "coordinates": [12.35, 45.38333]
      },
      "properties": {
         "id": "pmb259",
         "title": "Lido",
         "lat": "45.38333",
         "lon": "12.35",
         "timestamp": ["1927-04-23", "1927-04-26", "1927-04-28"],
         "importance": "3"
      }
      }, 
    {
      "type": "Feature",
      "geometry": {
        "type": "Point",
        "coordinates": [16.34618, 48.27805]
      },
      "properties": {
         "id": "pmb59364",
         "title": "Leopoldsberg",
         "lat": "48.27805",
         "lon": "16.34618",
         "timestamp": ["1927-04-18"],
         "importance": "1"
      }
      }, 
    {
      "type": "Feature",
      "geometry": {
        "type": "Point",
        "coordinates": [16.338015, 48.234046]
      },
      "properties": {
         "id": "pmb185644",
         "title": "Peregringasse 4",
         "lat": "48.234046",
         "lon": "16.338015",
         "timestamp": ["1927-04-12"],
         "importance": "1"
      }
      }, 
    {
      "type": "Feature",
      "geometry": {
        "type": "Point",
        "coordinates": [16.23036, 48.246719]
      },
      "properties": {
         "id": "pmb539",
         "title": "Sophienalpe",
         "lat": "48.246719",
         "lon": "16.23036",
         "timestamp": ["1927-04-17"],
         "importance": "1", 
        "wikipedia": "https://de.wikipedia.org/wiki/Sophienalpe", 
        "wikidata": "http://www.wikidata.org/entity/Q1787021"
      }
      }, 
    {
      "type": "Feature",
      "geometry": {
        "type": "Point",
        "coordinates": [16.2911, 48.2553]
      },
      "properties": {
         "id": "pmb242",
         "title": "Salmannsdorf",
         "lat": "48.2553",
         "lon": "16.2911",
         "timestamp": ["1927-04-17"],
         "importance": "1", 
        "wikipedia": "https://de.wikipedia.org/wiki/Salmannsdorf_(Wien)", 
        "wikidata": "http://www.wikidata.org/entity/Q1255079"
      }
      }, 
    {
      "type": "Feature",
      "geometry": {
        "type": "Point",
        "coordinates": [12.35645, 45.42953]
      },
      "properties": {
         "id": "pmb90711",
         "title": "Giardini Napoleonici",
         "lat": "45.42953",
         "lon": "12.35645",
         "timestamp": ["1927-04-22"],
         "importance": "1", 
        "wikidata": "http://www.wikidata.org/entity/Q724170"
      }
      }, 
    {
      "type": "Feature",
      "geometry": {
        "type": "Point",
        "coordinates": [16.353889, 48.1975]
      },
      "properties": {
         "id": "pmb52023",
         "title": "Apollo-Theater [Wien]",
         "lat": "48.1975",
         "lon": "16.353889",
         "timestamp": ["1927-04-08"],
         "importance": "1", 
        "wikipedia": "https://de.wikipedia.org/wiki/Apollo-Theater_(Wien)", 
        "wiengeschichtewiki": "https://www.geschichtewiki.wien.gv.at/Apollokino", 
        "wikidata": "http://www.wikidata.org/entity/Q618966"
      }
      }, 
    {
      "type": "Feature",
      "geometry": {
        "type": "Point",
        "coordinates": [16.35689, 48.21787]
      },
      "properties": {
         "id": "pmb232768",
         "title": "Beethovengasse 6",
         "lat": "48.21787",
         "lon": "16.35689",
         "timestamp": ["1927-04-15", "1927-04-19"],
         "importance": "2"
      }
      }, 
    {
      "type": "Feature",
      "geometry": {
        "type": "Point",
        "coordinates": [16.33716, 48.23188]
      },
      "properties": {
         "id": "pmb168815",
         "title": "Sternwartestraße 71",
         "lat": "48.23188",
         "lon": "16.33716",
         "timestamp": ["1927-04-01", "1927-04-02", "1927-04-03", "1927-04-04", "1927-04-05", "1927-04-06", "1927-04-07", "1927-04-08", "1927-04-09", "1927-04-10", "1927-04-11", "1927-04-12", "1927-04-13", "1927-04-14", "1927-04-15", "1927-04-16", "1927-04-17", "1927-04-18", "1927-04-19", "1927-04-20"],
         "importance": "20"
      }
      }, 
    {
      "type": "Feature",
      "geometry": {
        "type": "Point",
        "coordinates": [16.35137, 48.21346]
      },
      "properties": {
         "id": "pmb232800",
         "title": "Laudongasse 12",
         "lat": "48.21346",
         "lon": "16.35137",
         "timestamp": ["1927-04-05", "1927-04-19"],
         "importance": "2"
      }
      }, 
    {
      "type": "Feature",
      "geometry": {
        "type": "Point",
        "coordinates": [16.367725, 48.212284]
      },
      "properties": {
         "id": "pmb207301",
         "title": "Tiefer Graben 17",
         "lat": "48.212284",
         "lon": "16.367725",
         "timestamp": ["1927-04-12", "1927-04-19"],
         "importance": "2"
      }
      }, 
    {
      "type": "Feature",
      "geometry": {
        "type": "Point",
        "coordinates": [12.338208333333334, 45.433675]
      },
      "properties": {
         "id": "pmb232856",
         "title": "Caffè Florian",
         "lat": "45.433675",
         "lon": "12.338208333333334",
         "timestamp": ["1927-04-21", "1927-04-23", "1927-04-24", "1927-04-27", "1927-04-29"],
         "importance": "5", 
        "wikipedia": "https://de.wikipedia.org/wiki/Caff%C3%A8_Florian", 
        "wikidata": "http://www.wikidata.org/entity/Q960610"
      }
      }
  ]
}