{
  "type": "FeatureCollection",
  "features": [
    {
      "type": "Feature", 
      "geometry": {
        "type": "LineString", 
        "coordinates": [
            [16.363758, 48.212483], 
            [16.377117625773, 48.200254933632], 
            [16.37675, 48.20762], 
            [16.367725, 48.212284], 
            [16.33716, 48.23188]
          ]
      },
      "properties": {
        "name": "15. März 1927"
      }
    },
    {
      "type": "Feature",
      "geometry": {
        "type": "Point",
        "coordinates": [16.377117625773, 48.200254933632]
      },
      "properties": {
         "id": "pmb520",
         "title": "Akademietheater",
         "lat": "48.200254933632",
         "lon": "16.377117625773",
         "timestamp": ["1927-03-15"],
         "importance": "1"
      }
      },
    {
      "type": "Feature",
      "geometry": {
        "type": "Point",
        "coordinates": [16.367725, 48.212284]
      },
      "properties": {
         "id": "pmb207301",
         "title": "Tiefer Graben 17",
         "lat": "48.212284",
         "lon": "16.367725",
         "timestamp": ["1927-03-15"],
         "importance": "1"
      }
      },
    {
      "type": "Feature",
      "geometry": {
        "type": "Point",
        "coordinates": [16.37675, 48.20762]
      },
      "properties": {
         "id": "pmb235120",
         "title": "Schulerstraße 22",
         "lat": "48.20762",
         "lon": "16.37675",
         "timestamp": ["1927-03-15"],
         "importance": "1"
      }
      },
    {
      "type": "Feature",
      "geometry": {
        "type": "Point",
        "coordinates": [16.363758, 48.212483]
      },
      "properties": {
         "id": "pmb185333",
         "title": "Gastwirtschaft Alfred Leupold",
         "lat": "48.212483",
         "lon": "16.363758",
         "timestamp": ["1927-03-15"],
         "importance": "1"
      }
      },
    {
      "type": "Feature",
      "geometry": {
        "type": "Point",
        "coordinates": [16.33716, 48.23188]
      },
      "properties": {
         "id": "pmb168815",
         "title": "Sternwartestraße 71",
         "lat": "48.23188",
         "lon": "16.33716",
         "timestamp": ["1927-03-15"],
         "importance": "1"
      }
      }
  ]
}