{
  "type": "FeatureCollection",
  "features": [
    {
      "type": "Feature", 
      "geometry": {
        "type": "LineString", 
        "coordinates": [
            [16.361139, 48.210333], 
            [16.367998, 48.203159], 
            [16.373056, 48.208333], 
            [16.355941, 48.252263], 
            [16.3559, 48.2523], 
            [16.355191, 48.248422], 
            [16.33716, 48.23188]
          ]
      },
      "properties": {
        "name": "24. März 1928"
      }
    },
    {
      "type": "Feature",
      "geometry": {
        "type": "Point",
        "coordinates": [16.373056, 48.208333]
      },
      "properties": {
         "id": "pmb50",
         "title": "Wien",
         "lat": "48.208333",
         "lon": "16.373056",
         "timestamp": ["1928-03-24"],
         "importance": "1", 
        "wikipedia": "https://de.wikipedia.org/wiki/Wien", 
        "wikidata": "http://www.wikidata.org/entity/Q1741"
      }
      },
    {
      "type": "Feature",
      "geometry": {
        "type": "Point",
        "coordinates": [16.355191, 48.248422]
      },
      "properties": {
         "id": "pmb92292",
         "title": "Hohe Warte",
         "lat": "48.248422",
         "lon": "16.355191",
         "timestamp": ["1928-03-24"],
         "importance": "1", 
        "wikipedia": "https://de.wikipedia.org/wiki/Hohe_Warte_(Wien)", 
        "wikidata": "http://www.wikidata.org/entity/Q876564"
      }
      },
    {
      "type": "Feature",
      "geometry": {
        "type": "Point",
        "coordinates": [16.367998, 48.203159]
      },
      "properties": {
         "id": "pmb185989",
         "title": "Opernrestaurant",
         "lat": "48.203159",
         "lon": "16.367998",
         "timestamp": ["1928-03-24"],
         "importance": "1"
      }
      },
    {
      "type": "Feature",
      "geometry": {
        "type": "Point",
        "coordinates": [16.361139, 48.210333]
      },
      "properties": {
         "id": "pmb14",
         "title": "Burgtheater",
         "lat": "48.210333",
         "lon": "16.361139",
         "timestamp": ["1928-03-24"],
         "importance": "1"
      }
      },
    {
      "type": "Feature",
      "geometry": {
        "type": "Point",
        "coordinates": [16.3559, 48.2523]
      },
      "properties": {
         "id": "pmb207104",
         "title": "Haus Moll",
         "lat": "48.2523",
         "lon": "16.3559",
         "timestamp": ["1928-03-24"],
         "importance": "1", 
        "wikidata": "http://www.wikidata.org/entity/Q122841575"
      }
      },
    {
      "type": "Feature",
      "geometry": {
        "type": "Point",
        "coordinates": [16.355941, 48.252263]
      },
      "properties": {
         "id": "pmb246171",
         "title": "Wollergasse 10",
         "lat": "48.252263",
         "lon": "16.355941",
         "timestamp": ["1928-03-24"],
         "importance": "1"
      }
      },
    {
      "type": "Feature",
      "geometry": {
        "type": "Point",
        "coordinates": [16.33716, 48.23188]
      },
      "properties": {
         "id": "pmb168815",
         "title": "Sternwartestraße 71",
         "lat": "48.23188",
         "lon": "16.33716",
         "timestamp": ["1928-03-24"],
         "importance": "1"
      }
      }
  ]
}