{
  "type": "FeatureCollection",
  "features": [
    {
      "type": "Feature", 
      "geometry": {
        "type": "LineString", 
        "coordinates": [
            [16.358385, 48.21574], 
            [16.373056, 48.208333], 
            [16.367725, 48.212284], 
            [16.37675, 48.20762], 
            [16.340117830625, 48.23099349198], 
            [16.33716, 48.23188], 
            [16.35689, 48.21787]
          ]
      },
      "properties": {
        "name": "17. Februar 1928"
      }
    },
    {
      "type": "Feature",
      "geometry": {
        "type": "Point",
        "coordinates": [16.373056, 48.208333]
      },
      "properties": {
         "id": "pmb50",
         "title": "Wien",
         "lat": "48.208333",
         "lon": "16.373056",
         "timestamp": ["1928-02-17"],
         "importance": "1", 
        "wikipedia": "https://de.wikipedia.org/wiki/Wien", 
        "wikidata": "http://www.wikidata.org/entity/Q1741"
      }
      },
    {
      "type": "Feature",
      "geometry": {
        "type": "Point",
        "coordinates": [16.340117830625, 48.23099349198]
      },
      "properties": {
         "id": "pmb150",
         "title": "Sternwartestraße",
         "lat": "48.23099349198",
         "lon": "16.340117830625",
         "timestamp": ["1928-02-17"],
         "importance": "1"
      }
      },
    {
      "type": "Feature",
      "geometry": {
        "type": "Point",
        "coordinates": [16.358385, 48.21574]
      },
      "properties": {
         "id": "pmb92586",
         "title": "Sigmund-Freud-Park",
         "lat": "48.21574",
         "lon": "16.358385",
         "timestamp": ["1928-02-17"],
         "importance": "1", 
        "wikidata": "http://www.wikidata.org/entity/Q110088387"
      }
      },
    {
      "type": "Feature",
      "geometry": {
        "type": "Point",
        "coordinates": [16.367725, 48.212284]
      },
      "properties": {
         "id": "pmb207301",
         "title": "Tiefer Graben 17",
         "lat": "48.212284",
         "lon": "16.367725",
         "timestamp": ["1928-02-17"],
         "importance": "1"
      }
      },
    {
      "type": "Feature",
      "geometry": {
        "type": "Point",
        "coordinates": [16.35689, 48.21787]
      },
      "properties": {
         "id": "pmb232768",
         "title": "Beethovengasse 6",
         "lat": "48.21787",
         "lon": "16.35689",
         "timestamp": ["1928-02-17"],
         "importance": "1"
      }
      },
    {
      "type": "Feature",
      "geometry": {
        "type": "Point",
        "coordinates": [16.37675, 48.20762]
      },
      "properties": {
         "id": "pmb235120",
         "title": "Schulerstraße 22",
         "lat": "48.20762",
         "lon": "16.37675",
         "timestamp": ["1928-02-17"],
         "importance": "1"
      }
      },
    {
      "type": "Feature",
      "geometry": {
        "type": "Point",
        "coordinates": [16.33716, 48.23188]
      },
      "properties": {
         "id": "pmb168815",
         "title": "Sternwartestraße 71",
         "lat": "48.23188",
         "lon": "16.33716",
         "timestamp": ["1928-02-17"],
         "importance": "1"
      }
      }
  ]
}