{
  "type": "FeatureCollection",
  "features": [
    {
      "type": "Feature", 
      "geometry": {
        "type": "LineString", 
        "coordinates": [
            [35, 39], 
            [29.06097, 41.10164], 
            [28.9775, 41.03694], 
            [28.973055555556, 41.02], 
            [29.013, 41.00388], 
            [28.98, 41.00833333333333], 
            [28.978333, 41.008611], 
            [29.0944, 40.8753]
          ]
      },
      "properties": {
        "name": "23. April 1928"
      }
    },
    {
      "type": "Feature",
      "geometry": {
        "type": "Point",
        "coordinates": [
          28.98, 41.00833333333333
        ]
      },
      "properties": {
        "title": "Hagia Sophia",
        "timestamp": ["1928-04-23"],
        "id": "pmb207179", 
        "wikipedia": "https://de.wikipedia.org/wiki/Hagia_Sophia"
      }
      },
    {
      "type": "Feature",
      "geometry": {
        "type": "Point",
        "coordinates": [
          28.978333, 41.008611
        ]
      },
      "properties": {
        "title": "Cisterna Basilica",
        "timestamp": ["1928-04-23"],
        "id": "pmb207182", 
        "wikipedia": "https://de.wikipedia.org/wiki/Yerebatan-Zisterne"
      }
      },
    {
      "type": "Feature",
      "geometry": {
        "type": "Point",
        "coordinates": [
          28.973055555556, 41.02
        ]
      },
      "properties": {
        "title": "Galatabrücke",
        "timestamp": ["1928-04-23"],
        "id": "pmb207185", 
        "wikipedia": "https://de.wikipedia.org/wiki/Galatabr%C3%BCcke"
      }
      },
    {
      "type": "Feature",
      "geometry": {
        "type": "Point",
        "coordinates": [
          28.9775, 41.03694
        ]
      },
      "properties": {
        "title": "Beyoğlu",
        "timestamp": ["1928-04-23"],
        "id": "pmb91449"
      }
      },
    {
      "type": "Feature",
      "geometry": {
        "type": "Point",
        "coordinates": [
          29.06097, 41.10164
        ]
      },
      "properties": {
        "title": "Bosporus",
        "timestamp": ["1928-04-23"],
        "id": "pmb90386"
      }
      },
    {
      "type": "Feature",
      "geometry": {
        "type": "Point",
        "coordinates": [
          29.013, 41.00388
        ]
      },
      "properties": {
        "title": "Haydarpaşa",
        "timestamp": ["1928-04-23"],
        "id": "pmb142321"
      }
      },
    {
      "type": "Feature",
      "geometry": {
        "type": "Point",
        "coordinates": [
          29.0944, 40.8753
        ]
      },
      "properties": {
        "title": "Prinzeninseln",
        "timestamp": ["1928-04-23"],
        "id": "pmb207188", 
        "wikipedia": "https://de.wikipedia.org/wiki/Prinzeninseln_(Istanbul)"
      }
      },
    {
      "type": "Feature",
      "geometry": {
        "type": "Point",
        "coordinates": [
          35.0, 39.0
        ]
      },
      "properties": {
        "title": "Anatolia",
        "timestamp": ["1928-04-23"],
        "id": "pmb91034"
      }
      }
  ]
}