{
  "type": "FeatureCollection",
  "features": [
    {
      "type": "Feature", 
      "geometry": {
        "type": "LineString", 
        "coordinates": [
            [13.61893, 47.71109], 
            [13.62173, 47.7105], 
            [13.779, 47.80716], 
            [13.723216, 47.811987], 
            [13.72253, 47.8163]
          ]
      },
      "properties": {
        "name": "13. Juni 1928"
      }
    },
    {
      "type": "Feature",
      "geometry": {
        "type": "Point",
        "coordinates": [13.61893, 47.71109]
      },
      "properties": {
         "id": "pmb213",
         "title": "Bad Ischl",
         "lat": "47.71109",
         "lon": "13.61893",
         "timestamp": ["1928-06-13"],
         "importance": "1", 
        "wikipedia": "https://de.wikipedia.org/wiki/Bad_Ischl", 
        "wikidata": "http://www.wikidata.org/entity/Q250984"
      }
      },
    {
      "type": "Feature",
      "geometry": {
        "type": "Point",
        "coordinates": [13.62173, 47.7105]
      },
      "properties": {
         "id": "pmb715",
         "title": "Hotel Kaiserin Elisabeth [Bad Ischl]",
         "lat": "47.7105",
         "lon": "13.62173",
         "timestamp": ["1928-06-13"],
         "importance": "1"
      }
      },
    {
      "type": "Feature",
      "geometry": {
        "type": "Point",
        "coordinates": [13.779, 47.80716]
      },
      "properties": {
         "id": "pmb912",
         "title": "Ebensee am Traunsee",
         "lat": "47.80716",
         "lon": "13.779",
         "timestamp": ["1928-06-13"],
         "importance": "1", 
        "wikipedia": "https://de.wikipedia.org/wiki/Ebensee_am_Traunsee", 
        "wikidata": "http://www.wikidata.org/entity/Q699616"
      }
      },
    {
      "type": "Feature",
      "geometry": {
        "type": "Point",
        "coordinates": [13.723216, 47.811987]
      },
      "properties": {
         "id": "pmb92345",
         "title": "Kranabethsattel",
         "lat": "47.811987",
         "lon": "13.723216",
         "timestamp": ["1928-06-13"],
         "importance": "1"
      }
      },
    {
      "type": "Feature",
      "geometry": {
        "type": "Point",
        "coordinates": [13.72253, 47.8163]
      },
      "properties": {
         "id": "pmb90633",
         "title": "Feuerkogel",
         "lat": "47.8163",
         "lon": "13.72253",
         "timestamp": ["1928-06-13"],
         "importance": "1"
      }
      }
  ]
}