{
  "type": "FeatureCollection",
  "features": [
    {
      "type": "Feature", 
      "geometry": {
        "type": "LineString", 
        "coordinates": [
            [13.34291, 52.51456], 
            [13.318058, 52.511709], 
            [13.36821, 52.50982], 
            [13.41053, 52.52437], 
            [13.34156, 52.51667]
          ]
      },
      "properties": {
        "name": "10. Oktober 1928"
      }
    },
    {
      "type": "Feature",
      "geometry": {
        "type": "Point",
        "coordinates": [13.41053, 52.52437]
      },
      "properties": {
         "id": "pmb168",
         "title": "Berlin",
         "lat": "52.52437",
         "lon": "13.41053",
         "timestamp": ["1928-10-10"],
         "importance": "1", 
        "wikipedia": "https://de.wikipedia.org/wiki/Berlin", 
        "wikidata": "http://www.wikidata.org/entity/Q64"
      }
      },
    {
      "type": "Feature",
      "geometry": {
        "type": "Point",
        "coordinates": [13.34156, 52.51667]
      },
      "properties": {
         "id": "pmb92267",
         "title": "Händelallee",
         "lat": "52.51667",
         "lon": "13.34156",
         "timestamp": ["1928-10-10"],
         "importance": "1"
      }
      },
    {
      "type": "Feature",
      "geometry": {
        "type": "Point",
        "coordinates": [13.318058, 52.511709]
      },
      "properties": {
         "id": "pmb334",
         "title": "Schiller-Theater",
         "lat": "52.511709",
         "lon": "13.318058",
         "timestamp": ["1928-10-10"],
         "importance": "1"
      }
      },
    {
      "type": "Feature",
      "geometry": {
        "type": "Point",
        "coordinates": [13.34291, 52.51456]
      },
      "properties": {
         "id": "pmb233576",
         "title": "Händelallee 8",
         "lat": "52.51456",
         "lon": "13.34291",
         "timestamp": ["1928-10-10"],
         "importance": "1"
      }
      },
    {
      "type": "Feature",
      "geometry": {
        "type": "Point",
        "coordinates": [13.36821, 52.50982]
      },
      "properties": {
         "id": "pmb233325",
         "title": "Herbert-von-Karajan-Straße 15",
         "lat": "52.50982",
         "lon": "13.36821",
         "timestamp": ["1928-10-10"],
         "importance": "1"
      }
      }
  ]
}