{
  "type": "FeatureCollection",
  "features": [
    {
      "type": "Feature", 
      "geometry": {
        "type": "LineString", 
        "coordinates": [
            [16.23333, 48.26667], 
            [16.373056, 48.208333], 
            [16.33716, 48.23188], 
            [16.320833, 48.252222], 
            [16.33306, 48.25], 
            [16.27616, 48.30997], 
            [16.209444, 48.327778], 
            [16.14492, 48.30198], 
            [16.12209, 48.2794]
          ]
      },
      "properties": {
        "name": "4. August 1929"
      }
    },
    {
      "type": "Feature",
      "geometry": {
        "type": "Point",
        "coordinates": [16.373056, 48.208333]
      },
      "properties": {
         "id": "pmb50",
         "title": "Wien",
         "lat": "48.208333",
         "lon": "16.373056",
         "timestamp": ["1929-08-04"],
         "importance": "1", 
        "wikipedia": "https://de.wikipedia.org/wiki/Wien", 
        "wikidata": "http://www.wikidata.org/entity/Q1741"
      }
      },
    {
      "type": "Feature",
      "geometry": {
        "type": "Point",
        "coordinates": [16.33306, 48.25]
      },
      "properties": {
         "id": "pmb69",
         "title": "XIX., Döbling",
         "lat": "48.25",
         "lon": "16.33306",
         "timestamp": ["1929-08-04"],
         "importance": "1", 
        "wikipedia": "https://de.wikipedia.org/wiki/D%C3%B6bling", 
        "wikidata": "http://www.wikidata.org/entity/Q267360"
      }
      },
    {
      "type": "Feature",
      "geometry": {
        "type": "Point",
        "coordinates": [16.209444, 48.327778]
      },
      "properties": {
         "id": "pmb1246",
         "title": "St. Andrä-Wördern",
         "lat": "48.327778",
         "lon": "16.209444",
         "timestamp": ["1929-08-04"],
         "importance": "1", 
        "wikipedia": "https://de.wikipedia.org/wiki/St._Andr%C3%A4-W%C3%B6rdern", 
        "wikidata": "http://www.wikidata.org/entity/Q672587"
      }
      },
    {
      "type": "Feature",
      "geometry": {
        "type": "Point",
        "coordinates": [16.12209, 48.2794]
      },
      "properties": {
         "id": "pmb91955",
         "title": "Tulbing",
         "lat": "48.2794",
         "lon": "16.12209",
         "timestamp": ["1929-08-04"],
         "importance": "1"
      }
      },
    {
      "type": "Feature",
      "geometry": {
        "type": "Point",
        "coordinates": [16.14492, 48.30198]
      },
      "properties": {
         "id": "pmb34354",
         "title": "Königstetten",
         "lat": "48.30198",
         "lon": "16.14492",
         "timestamp": ["1929-08-04"],
         "importance": "1", 
        "wikipedia": "https://de.wikipedia.org/wiki/K%C3%B6nigstetten", 
        "wikidata": "http://www.wikidata.org/entity/Q691498"
      }
      },
    {
      "type": "Feature",
      "geometry": {
        "type": "Point",
        "coordinates": [16.27616, 48.30997]
      },
      "properties": {
         "id": "pmb8062",
         "title": "Kierling",
         "lat": "48.30997",
         "lon": "16.27616",
         "timestamp": ["1929-08-04"],
         "importance": "1", 
        "wikipedia": "https://de.wikipedia.org/wiki/Kierling", 
        "wikidata": "http://www.wikidata.org/entity/Q875133"
      }
      },
    {
      "type": "Feature",
      "geometry": {
        "type": "Point",
        "coordinates": [16.23333, 48.26667]
      },
      "properties": {
         "id": "pmb289",
         "title": "Steinriegl",
         "lat": "48.26667",
         "lon": "16.23333",
         "timestamp": ["1929-08-04"],
         "importance": "1"
      }
      },
    {
      "type": "Feature",
      "geometry": {
        "type": "Point",
        "coordinates": [16.320833, 48.252222]
      },
      "properties": {
         "id": "pmb288",
         "title": "Sievering",
         "lat": "48.252222",
         "lon": "16.320833",
         "timestamp": ["1929-08-04"],
         "importance": "1", 
        "wikipedia": "https://de.wikipedia.org/wiki/Sievering", 
        "wikidata": "http://www.wikidata.org/entity/Q1692038"
      }
      },
    {
      "type": "Feature",
      "geometry": {
        "type": "Point",
        "coordinates": [16.33716, 48.23188]
      },
      "properties": {
         "id": "pmb168815",
         "title": "Sternwartestraße 71",
         "lat": "48.23188",
         "lon": "16.33716",
         "timestamp": ["1929-08-04"],
         "importance": "1"
      }
      }
  ]
}