{
  "type": "FeatureCollection",
  "features": [
    {
      "type": "Feature", 
      "geometry": {
        "type": "LineString", 
        "coordinates": [
            [16.3576, 48.21071], 
            [16.373056, 48.208333], 
            [16.367725, 48.212284], 
            [16.34167, 48.233004], 
            [16.337998, 48.235859], 
            [16.338016, 48.234091], 
            [16.33716, 48.23188]
          ]
      },
      "properties": {
        "name": "30. November 1929"
      }
    },
    {
      "type": "Feature",
      "geometry": {
        "type": "Point",
        "coordinates": [16.373056, 48.208333]
      },
      "properties": {
         "id": "pmb50",
         "title": "Wien",
         "lat": "48.208333",
         "lon": "16.373056",
         "timestamp": ["1929-11-30"],
         "importance": "1", 
        "wikipedia": "https://de.wikipedia.org/wiki/Wien", 
        "wikidata": "http://www.wikidata.org/entity/Q1741"
      }
      },
    {
      "type": "Feature",
      "geometry": {
        "type": "Point",
        "coordinates": [16.3576, 48.21071]
      },
      "properties": {
         "id": "pmb373",
         "title": "Rathaus",
         "lat": "48.21071",
         "lon": "16.3576",
         "timestamp": ["1929-11-30"],
         "importance": "1", 
        "wikipedia": "https://de.wikipedia.org/wiki/Wiener_Rathaus", 
        "wikidata": "http://www.wikidata.org/entity/Q686468"
      }
      },
    {
      "type": "Feature",
      "geometry": {
        "type": "Point",
        "coordinates": [16.367725, 48.212284]
      },
      "properties": {
         "id": "pmb207301",
         "title": "Tiefer Graben 17",
         "lat": "48.212284",
         "lon": "16.367725",
         "timestamp": ["1929-11-30"],
         "importance": "1"
      }
      },
    {
      "type": "Feature",
      "geometry": {
        "type": "Point",
        "coordinates": [16.34167, 48.233004]
      },
      "properties": {
         "id": "pmb235812",
         "title": "Cottagegasse 37",
         "lat": "48.233004",
         "lon": "16.34167",
         "timestamp": ["1929-11-30"],
         "importance": "1"
      }
      },
    {
      "type": "Feature",
      "geometry": {
        "type": "Point",
        "coordinates": [16.338016, 48.234091]
      },
      "properties": {
         "id": "pmb236372",
         "title": "Gregor-Mendel-Straße 34",
         "lat": "48.234091",
         "lon": "16.338016",
         "timestamp": ["1929-11-30"],
         "importance": "1"
      }
      },
    {
      "type": "Feature",
      "geometry": {
        "type": "Point",
        "coordinates": [16.337998, 48.235859]
      },
      "properties": {
         "id": "pmb232834",
         "title": "Gregor-Mendel-Straße 50",
         "lat": "48.235859",
         "lon": "16.337998",
         "timestamp": ["1929-11-30"],
         "importance": "1"
      }
      },
    {
      "type": "Feature",
      "geometry": {
        "type": "Point",
        "coordinates": [16.33716, 48.23188]
      },
      "properties": {
         "id": "pmb168815",
         "title": "Sternwartestraße 71",
         "lat": "48.23188",
         "lon": "16.33716",
         "timestamp": ["1929-11-30"],
         "importance": "1"
      }
      }
  ]
}