{
  "type": "FeatureCollection",
  "features": [
    {
      "type": "Feature", 
      "geometry": {
        "type": "LineString", 
        "coordinates": [
            [6.92619, 46.4336], 
            [6.92122, 46.42863], 
            [6.9237, 46.4256], 
            [6.93855, 46.43241], 
            [6.940279, 46.43239], 
            [6.94084, 46.45179]
          ]
      },
      "properties": {
        "name": "27. August 1929"
      }
    },
    {
      "type": "Feature",
      "geometry": {
        "type": "Point",
        "coordinates": [6.93855, 46.43241]
      },
      "properties": {
         "id": "pmb90460",
         "title": "Caux",
         "lat": "46.43241",
         "lon": "6.93855",
         "timestamp": ["1929-08-27"],
         "importance": "1"
      }
      },
    {
      "type": "Feature",
      "geometry": {
        "type": "Point",
        "coordinates": [6.940279, 46.43239]
      },
      "properties": {
         "id": "pmb147147",
         "title": "Grand Hotel Excelsior Regina",
         "lat": "46.43239",
         "lon": "6.940279",
         "timestamp": ["1929-08-27"],
         "importance": "1"
      }
      },
    {
      "type": "Feature",
      "geometry": {
        "type": "Point",
        "coordinates": [6.92619, 46.4336]
      },
      "properties": {
         "id": "pmb40483",
         "title": "Glion",
         "lat": "46.4336",
         "lon": "6.92619",
         "timestamp": ["1929-08-27"],
         "importance": "1", 
        "wikipedia": "https://de.wikipedia.org/wiki/Glion", 
        "wikidata": "http://www.wikidata.org/entity/Q688497"
      }
      },
    {
      "type": "Feature",
      "geometry": {
        "type": "Point",
        "coordinates": [6.94084, 46.45179]
      },
      "properties": {
         "id": "pmb2715",
         "title": "Montreux",
         "lat": "46.45179",
         "lon": "6.94084",
         "timestamp": ["1929-08-27"],
         "importance": "1", 
        "wikipedia": "https://de.wikipedia.org/wiki/Montreux", 
        "wikidata": "http://www.wikidata.org/entity/Q69354"
      }
      },
    {
      "type": "Feature",
      "geometry": {
        "type": "Point",
        "coordinates": [6.92122, 46.42863]
      },
      "properties": {
         "id": "pmb5260",
         "title": "Territet",
         "lat": "46.42863",
         "lon": "6.92122",
         "timestamp": ["1929-08-27"],
         "importance": "1"
      }
      },
    {
      "type": "Feature",
      "geometry": {
        "type": "Point",
        "coordinates": [6.9237, 46.4256]
      },
      "properties": {
         "id": "pmb53208",
         "title": "Hôtel des Alpes-Grand Hôtel",
         "lat": "46.4256",
         "lon": "6.9237",
         "timestamp": ["1929-08-27"],
         "importance": "1"
      }
      }
  ]
}