{
  "type": "FeatureCollection",
  "features": [
    {
      "type": "Feature", 
      "geometry": {
        "type": "LineString", 
        "coordinates": [
            [13.26269, 52.48383], 
            [13.29602, 52.49005], 
            [13.374444, 52.51], 
            [13.41053, 52.52437], 
            [13.41212, 52.58777]
          ]
      },
      "properties": {
        "name": "19. März 1929"
      }
    },
    {
      "type": "Feature",
      "geometry": {
        "type": "Point",
        "coordinates": [13.374444, 52.51]
      },
      "properties": {
         "id": "pmb245",
         "title": "Hotel Esplanade [Berlin]",
         "lat": "52.51",
         "lon": "13.374444",
         "timestamp": ["1929-03-19"],
         "importance": "1", 
        "wikipedia": "https://de.wikipedia.org/wiki/Hotel_Esplanade_(Berlin)", 
        "wikidata": "http://www.wikidata.org/entity/Q321562"
      }
      },
    {
      "type": "Feature",
      "geometry": {
        "type": "Point",
        "coordinates": [13.41053, 52.52437]
      },
      "properties": {
         "id": "pmb168",
         "title": "Berlin",
         "lat": "52.52437",
         "lon": "13.41053",
         "timestamp": ["1929-03-19"],
         "importance": "1", 
        "wikipedia": "https://de.wikipedia.org/wiki/Berlin", 
        "wikidata": "http://www.wikidata.org/entity/Q64"
      }
      },
    {
      "type": "Feature",
      "geometry": {
        "type": "Point",
        "coordinates": [13.29602, 52.49005]
      },
      "properties": {
         "id": "pmb90827",
         "title": "Halensee",
         "lat": "52.49005",
         "lon": "13.29602",
         "timestamp": ["1929-03-19"],
         "importance": "1"
      }
      },
    {
      "type": "Feature",
      "geometry": {
        "type": "Point",
        "coordinates": [13.26269, 52.48383]
      },
      "properties": {
         "id": "pmb235943",
         "title": "Douglasstraße 10",
         "lat": "52.48383",
         "lon": "13.26269",
         "timestamp": ["1929-03-19"],
         "importance": "1"
      }
      },
    {
      "type": "Feature",
      "geometry": {
        "type": "Point",
        "coordinates": [13.41212, 52.58777]
      },
      "properties": {
         "id": "pmb144055",
         "title": "Lanzsch & Co.",
         "lat": "52.58777",
         "lon": "13.41212",
         "timestamp": ["1929-03-19"],
         "importance": "1"
      }
      }
  ]
}