{
  "type": "FeatureCollection",
  "features": [
    {
      "type": "Feature", 
      "geometry": {
        "type": "LineString", 
        "coordinates": [
            [16.299116267833, 48.230916826952], 
            [16.33716, 48.23188], 
            [16.333056, 48.233056], 
            [16.338016, 48.234091], 
            [16.276509500872, 48.241960480337]
          ]
      },
      "properties": {
        "name": "30. November 1930"
      }
    },
    {
      "type": "Feature",
      "geometry": {
        "type": "Point",
        "coordinates": [
          16.299116267833, 48.230916826952
        ]
      },
      "properties": {
        "title": "Dornbach",
        "timestamp": ["1930-11-30"],
        "pmb": "https://pmb.acdh.oeaw.ac.at/entity/pmb499/"
      }
      },
    {
      "type": "Feature",
      "geometry": {
        "type": "Point",
        "coordinates": [
          16.276509500872, 48.241960480337
        ]
      },
      "properties": {
        "title": "Schwarzenbergpark",
        "timestamp": ["1930-11-30"],
        "pmb": "https://pmb.acdh.oeaw.ac.at/entity/pmb176/", 
        "wikipedia": "https://de.wikipedia.org/wiki/Schwarzenbergpark"
      }
      },
    {
      "type": "Feature",
      "geometry": {
        "type": "Point",
        "coordinates": [
          16.333056, 48.233056
        ]
      },
      "properties": {
        "title": "Cottage-Sanatorium für Nerven- und Stoffwechselkranke",
        "timestamp": ["1930-11-30"],
        "pmb": "https://pmb.acdh.oeaw.ac.at/entity/pmb61755/"
      }
      },
    {
      "type": "Feature",
      "geometry": {
        "type": "Point",
        "coordinates": [
          16.33716, 48.23188
        ]
      },
      "properties": {
        "title": "Sternwartestraße 71",
        "timestamp": ["1930-11-30"],
        "pmb": "https://pmb.acdh.oeaw.ac.at/entity/pmb168815/"
      }
      },
    {
      "type": "Feature",
      "geometry": {
        "type": "Point",
        "coordinates": [
          16.338016, 48.234091
        ]
      },
      "properties": {
        "title": "Gregor-Mendel-Straße 34",
        "timestamp": ["1930-11-30"],
        "pmb": "https://pmb.acdh.oeaw.ac.at/entity/pmb236372/"
      }
      }
  ]
}