{
  "type": "FeatureCollection",
  "features": [
    {
      "type": "Feature", 
      "geometry": {
        "type": "LineString", 
        "coordinates": [
            [16.373056, 48.208333], 
            [16.33716, 48.23188], 
            [16.338016, 48.234091], 
            [16.333056, 48.233056], 
            [16.31667, 48.23333], 
            [16.276509500872, 48.241960480337], 
            [16.299116267833, 48.230916826952]
          ]
      },
      "properties": {
        "name": "30. November 1930"
      }
    },
    {
      "type": "Feature",
      "geometry": {
        "type": "Point",
        "coordinates": [16.373056, 48.208333]
      },
      "properties": {
         "id": "pmb50",
         "title": "Wien",
         "lat": "48.208333",
         "lon": "16.373056",
         "timestamp": ["1930-11-30"],
         "importance": "1", 
        "wikipedia": "https://de.wikipedia.org/wiki/Wien", 
        "wikidata": "http://www.wikidata.org/entity/Q1741"
      }
      },
    {
      "type": "Feature",
      "geometry": {
        "type": "Point",
        "coordinates": [16.31667, 48.23333]
      },
      "properties": {
         "id": "pmb68",
         "title": "XVIII., Währing",
         "lat": "48.23333",
         "lon": "16.31667",
         "timestamp": ["1930-11-30"],
         "importance": "1", 
        "wikipedia": "https://de.wikipedia.org/wiki/W%C3%A4hring", 
        "wikidata": "http://www.wikidata.org/entity/Q690417"
      }
      },
    {
      "type": "Feature",
      "geometry": {
        "type": "Point",
        "coordinates": [16.299116267833, 48.230916826952]
      },
      "properties": {
         "id": "pmb499",
         "title": "Dornbach",
         "lat": "48.230916826952",
         "lon": "16.299116267833",
         "timestamp": ["1930-11-30"],
         "importance": "1"
      }
      },
    {
      "type": "Feature",
      "geometry": {
        "type": "Point",
        "coordinates": [16.276509500872, 48.241960480337]
      },
      "properties": {
         "id": "pmb176",
         "title": "Schwarzenbergpark",
         "lat": "48.241960480337",
         "lon": "16.276509500872",
         "timestamp": ["1930-11-30"],
         "importance": "1", 
        "wikipedia": "https://de.wikipedia.org/wiki/Schwarzenbergpark", 
        "wikidata": "http://www.wikidata.org/entity/Q2253835"
      }
      },
    {
      "type": "Feature",
      "geometry": {
        "type": "Point",
        "coordinates": [16.333056, 48.233056]
      },
      "properties": {
         "id": "pmb61755",
         "title": "Cottage-Sanatorium für Nerven- und Stoffwechselkranke",
         "lat": "48.233056",
         "lon": "16.333056",
         "timestamp": ["1930-11-30"],
         "importance": "1"
      }
      },
    {
      "type": "Feature",
      "geometry": {
        "type": "Point",
        "coordinates": [16.338016, 48.234091]
      },
      "properties": {
         "id": "pmb236372",
         "title": "Gregor-Mendel-Straße 34",
         "lat": "48.234091",
         "lon": "16.338016",
         "timestamp": ["1930-11-30"],
         "importance": "1"
      }
      },
    {
      "type": "Feature",
      "geometry": {
        "type": "Point",
        "coordinates": [16.33716, 48.23188]
      },
      "properties": {
         "id": "pmb168815",
         "title": "Sternwartestraße 71",
         "lat": "48.23188",
         "lon": "16.33716",
         "timestamp": ["1930-11-30"],
         "importance": "1"
      }
      }
  ]
}