{
  "type": "FeatureCollection",
  "features": [
    {
      "type": "Feature", 
      "geometry": {
        "type": "LineString", 
        "coordinates": [
            [13.28702, 52.4581], 
            [13.28135, 52.45014], 
            [13.383899, 52.459222], 
            [13.41053, 52.52437], 
            [13.374444, 52.51], 
            [13.374444, 52.51], 
            [13.285973, 52.509488], 
            [13.285915, 52.509081], 
            [13.3032, 52.499]
          ]
      },
      "properties": {
        "name": "6. Januar 1930"
      }
    },
    {
      "type": "Feature",
      "geometry": {
        "type": "Point",
        "coordinates": [13.41053, 52.52437]
      },
      "properties": {
         "id": "pmb168",
         "title": "Berlin",
         "lat": "52.52437",
         "lon": "13.41053",
         "timestamp": ["1930-01-06"],
         "importance": "1", 
        "wikipedia": "https://de.wikipedia.org/wiki/Berlin", 
        "wikidata": "http://www.wikidata.org/entity/Q64"
      }
      },
    {
      "type": "Feature",
      "geometry": {
        "type": "Point",
        "coordinates": [13.374444, 52.51]
      },
      "properties": {
         "id": "pmb245",
         "title": "Hotel Esplanade [Berlin]",
         "lat": "52.51",
         "lon": "13.374444",
         "timestamp": ["1930-01-06"],
         "importance": "1", 
        "wikipedia": "https://de.wikipedia.org/wiki/Hotel_Esplanade_(Berlin)", 
        "wikidata": "http://www.wikidata.org/entity/Q321562"
      }
      },
    {
      "type": "Feature",
      "geometry": {
        "type": "Point",
        "coordinates": [13.28702, 52.4581]
      },
      "properties": {
         "id": "pmb90508",
         "title": "Dahlem",
         "lat": "52.4581",
         "lon": "13.28702",
         "timestamp": ["1930-01-06"],
         "importance": "1"
      }
      },
    {
      "type": "Feature",
      "geometry": {
        "type": "Point",
        "coordinates": [13.285915, 52.509081]
      },
      "properties": {
         "id": "pmb92484",
         "title": "Riehlstraße",
         "lat": "52.509081",
         "lon": "13.285915",
         "timestamp": ["1930-01-06"],
         "importance": "1", 
        "wikipedia": "https://de.wikipedia.org/wiki/Riehlstra%C3%9Fe", 
        "wikidata": "http://www.wikidata.org/entity/Q97593188"
      }
      },
    {
      "type": "Feature",
      "geometry": {
        "type": "Point",
        "coordinates": [13.383899, 52.459222]
      },
      "properties": {
         "id": "pmb237795",
         "title": "Kaiserin-Augusta-Straße 78",
         "lat": "52.459222",
         "lon": "13.383899",
         "timestamp": ["1930-01-06"],
         "importance": "1"
      }
      },
    {
      "type": "Feature",
      "geometry": {
        "type": "Point",
        "coordinates": [13.28135, 52.45014]
      },
      "properties": {
         "id": "pmb235968",
         "title": "Faradayweg 16",
         "lat": "52.45014",
         "lon": "13.28135",
         "timestamp": ["1930-01-06"],
         "importance": "1"
      }
      },
    {
      "type": "Feature",
      "geometry": {
        "type": "Point",
        "coordinates": [13.285973, 52.509488]
      },
      "properties": {
         "id": "pmb237801",
         "title": "Riehlstraße 2",
         "lat": "52.509488",
         "lon": "13.285973",
         "timestamp": ["1930-01-06"],
         "importance": "1"
      }
      },
    {
      "type": "Feature",
      "geometry": {
        "type": "Point",
        "coordinates": [13.374444, 52.51]
      },
      "properties": {
         "id": "pmb245",
         "title": "Hotel Esplanade [Berlin]",
         "lat": "52.51",
         "lon": "13.374444",
         "timestamp": ["1930-01-06"],
         "importance": "1", 
        "wikipedia": "https://de.wikipedia.org/wiki/Hotel_Esplanade_(Berlin)", 
        "wikidata": "http://www.wikidata.org/entity/Q321562"
      }
      },
    {
      "type": "Feature",
      "geometry": {
        "type": "Point",
        "coordinates": [13.3032, 52.499]
      },
      "properties": {
         "id": "pmb237807",
         "title": "Kabarett der Komiker",
         "lat": "52.499",
         "lon": "13.3032",
         "timestamp": ["1930-01-06"],
         "importance": "1", 
        "wikipedia": "https://de.wikipedia.org/wiki/Kabarett_der_Komiker", 
        "wikidata": "http://www.wikidata.org/entity/Q896913"
      }
      }
  ]
}