{
  "type": "FeatureCollection",
  "features": [
    {
      "type": "Feature", 
      "geometry": {
        "type": "LineString", 
        "coordinates": [
            [10.07889, 46.29313], 
            [10.05823, 46.32441], 
            [10.08814, 46.30994], 
            [9.90126, 46.4955], 
            [9.84327, 46.49937]
          ]
      },
      "properties": {
        "name": "6. August 1930"
      }
    },
    {
      "type": "Feature",
      "geometry": {
        "type": "Point",
        "coordinates": [
          9.84327, 46.49937
        ]
      },
      "properties": {
        "title": "Sankt Moritz",
        "timestamp": ["1930-08-06"],
        "id": "pmb44374"
      }
      },
    {
      "type": "Feature",
      "geometry": {
        "type": "Point",
        "coordinates": [
          9.90126, 46.4955
        ]
      },
      "properties": {
        "title": "Pontresina",
        "timestamp": ["1930-08-06"],
        "id": "pmb34946"
      }
      },
    {
      "type": "Feature",
      "geometry": {
        "type": "Point",
        "coordinates": [
          10.08814, 46.30994
        ]
      },
      "properties": {
        "title": "Bernina [Bezirk]",
        "timestamp": ["1930-08-06"],
        "id": "pmb90342"
      }
      },
    {
      "type": "Feature",
      "geometry": {
        "type": "Point",
        "coordinates": [
          10.05823, 46.32441
        ]
      },
      "properties": {
        "title": "Poschiavo",
        "timestamp": ["1930-08-06"],
        "id": "pmb91514"
      }
      },
    {
      "type": "Feature",
      "geometry": {
        "type": "Point",
        "coordinates": [
          10.07889, 46.29313
        ]
      },
      "properties": {
        "title": "Le Prese",
        "timestamp": ["1930-08-06"],
        "id": "pmb49135", 
        "wikipedia": "https://de.wikipedia.org/wiki/Le_Prese"
      }
      }
  ]
}