{
  "type": "FeatureCollection",
  "features": [
    {
      "type": "Feature", 
      "geometry": {
        "type": "LineString", 
        "coordinates": [
            [13.3853, 52.4533], 
            [13.39333, 52.51483], 
            [13.374444, 52.51], 
            [13.36821, 52.50982], 
            [13.364497, 52.497646]
          ]
      },
      "properties": {
        "name": "13. November 1930"
      }
    },
    {
      "type": "Feature",
      "geometry": {
        "type": "Point",
        "coordinates": [
          13.374444, 52.51
        ]
      },
      "properties": {
        "title": "Hotel Esplanade [Berlin]",
        "timestamp": ["1930-11-13"],
        "pmb": "https://pmb.acdh.oeaw.ac.at/entity/pmb245/", 
        "wikipedia": "https://de.wikipedia.org/wiki/Hotel_Esplanade_(Berlin)"
      }
      },
    {
      "type": "Feature",
      "geometry": {
        "type": "Point",
        "coordinates": [
          13.39333, 52.51483
        ]
      },
      "properties": {
        "title": "Bank für Auswärtigen Handel",
        "timestamp": ["1930-11-13"],
        "pmb": "https://pmb.acdh.oeaw.ac.at/entity/pmb493/"
      }
      },
    {
      "type": "Feature",
      "geometry": {
        "type": "Point",
        "coordinates": [
          13.364497, 52.497646
        ]
      },
      "properties": {
        "title": "Bülowstraße 78",
        "timestamp": ["1930-11-13"],
        "pmb": "https://pmb.acdh.oeaw.ac.at/entity/pmb237733/"
      }
      },
    {
      "type": "Feature",
      "geometry": {
        "type": "Point",
        "coordinates": [
          13.3853, 52.4533
        ]
      },
      "properties": {
        "title": "Ullsteinhaus",
        "timestamp": ["1930-11-13"],
        "pmb": "https://pmb.acdh.oeaw.ac.at/entity/pmb244563/", 
        "wikipedia": "https://de.wikipedia.org/wiki/Ullsteinhaus"
      }
      },
    {
      "type": "Feature",
      "geometry": {
        "type": "Point",
        "coordinates": [
          13.36821, 52.50982
        ]
      },
      "properties": {
        "title": "Herbert-von-Karajan-Straße 15",
        "timestamp": ["1930-11-13"],
        "pmb": "https://pmb.acdh.oeaw.ac.at/entity/pmb233325/"
      }
      }
  ]
}