{
  "type": "FeatureCollection",
  "features": [
    {
      "type": "Feature", 
      "geometry": {
        "type": "LineString", 
        "coordinates": [
            [16.31866, 48.18382], 
            [16.337778, 48.196667], 
            [16.32586, 48.17192], 
            [16.37128, 48.20719], 
            [16.3747466, 48.2104057], 
            [16.35689, 48.21787], 
            [16.35137, 48.21346], 
            [16.33716, 48.23188]
          ]
      },
      "properties": {
        "name": "12. September 1930"
      }
    },
    {
      "type": "Feature",
      "geometry": {
        "type": "Point",
        "coordinates": [
          16.3747466, 48.2104057
        ]
      },
      "properties": {
        "title": "Zur Linde",
        "timestamp": ["1930-09-12"],
        "pmb": "https://pmb.acdh.oeaw.ac.at/entity/pmb705/"
      }
      },
    {
      "type": "Feature",
      "geometry": {
        "type": "Point",
        "coordinates": [
          16.337778, 48.196667
        ]
      },
      "properties": {
        "title": "Westbahnhof",
        "timestamp": ["1930-09-12"],
        "pmb": "https://pmb.acdh.oeaw.ac.at/entity/pmb184918/", 
        "wikipedia": "https://de.wikipedia.org/wiki/Wien_Westbahnhof"
      }
      },
    {
      "type": "Feature",
      "geometry": {
        "type": "Point",
        "coordinates": [
          16.35689, 48.21787
        ]
      },
      "properties": {
        "title": "Beethovengasse 6",
        "timestamp": ["1930-09-12"],
        "pmb": "https://pmb.acdh.oeaw.ac.at/entity/pmb232768/"
      }
      },
    {
      "type": "Feature",
      "geometry": {
        "type": "Point",
        "coordinates": [
          16.35137, 48.21346
        ]
      },
      "properties": {
        "title": "Laudongasse 12",
        "timestamp": ["1930-09-12"],
        "pmb": "https://pmb.acdh.oeaw.ac.at/entity/pmb232800/"
      }
      },
    {
      "type": "Feature",
      "geometry": {
        "type": "Point",
        "coordinates": [
          16.33716, 48.23188
        ]
      },
      "properties": {
        "title": "Sternwartestraße 71",
        "timestamp": ["1930-09-12"],
        "pmb": "https://pmb.acdh.oeaw.ac.at/entity/pmb168815/"
      }
      },
    {
      "type": "Feature",
      "geometry": {
        "type": "Point",
        "coordinates": [
          16.32586, 48.17192
        ]
      },
      "properties": {
        "title": "XII., Meidling",
        "timestamp": ["1930-09-12"],
        "pmb": "https://pmb.acdh.oeaw.ac.at/entity/pmb62/", 
        "wikipedia": "https://de.wikipedia.org/wiki/Meidling_(Wiener_Bezirksteil) https://de.wikipedia.org/wiki/Meidling"
      }
      },
    {
      "type": "Feature",
      "geometry": {
        "type": "Point",
        "coordinates": [
          16.37128, 48.20719
        ]
      },
      "properties": {
        "title": "Kindermodenhaus Ignaz Bittmann",
        "timestamp": ["1930-09-12"],
        "pmb": "https://pmb.acdh.oeaw.ac.at/entity/pmb244382/"
      }
      },
    {
      "type": "Feature",
      "geometry": {
        "type": "Point",
        "coordinates": [
          16.31866, 48.18382
        ]
      },
      "properties": {
        "title": "Café Schlößl",
        "timestamp": ["1930-09-12"],
        "pmb": "https://pmb.acdh.oeaw.ac.at/entity/pmb239834/"
      }
      }
  ]
}