{
  "type": "FeatureCollection",
  "features": [
    {
      "type": "Feature", 
      "geometry": {
        "type": "LineString", 
        "coordinates": [
            [16.351435, 48.209524], 
            [16.37354, 48.1948], 
            [16.373056, 48.208333], 
            [16.338016, 48.234091], 
            [16.33716, 48.23188]
          ]
      },
      "properties": {
        "name": "21. März 1930"
      }
    },
    {
      "type": "Feature",
      "geometry": {
        "type": "Point",
        "coordinates": [16.373056, 48.208333]
      },
      "properties": {
         "id": "pmb50",
         "title": "Wien",
         "lat": "48.208333",
         "lon": "16.373056",
         "timestamp": ["1930-03-21"],
         "importance": "1", 
        "wikipedia": "https://de.wikipedia.org/wiki/Wien", 
        "wikidata": "http://www.wikidata.org/entity/Q1741"
      }
      },
    {
      "type": "Feature",
      "geometry": {
        "type": "Point",
        "coordinates": [16.351435, 48.209524]
      },
      "properties": {
         "id": "pmb185511",
         "title": "Restaurant zum weißen Hahn",
         "lat": "48.209524",
         "lon": "16.351435",
         "timestamp": ["1930-03-21"],
         "importance": "1"
      }
      },
    {
      "type": "Feature",
      "geometry": {
        "type": "Point",
        "coordinates": [16.37354, 48.1948]
      },
      "properties": {
         "id": "pmb235885",
         "title": "Phaidon Verlag",
         "lat": "48.1948",
         "lon": "16.37354",
         "timestamp": ["1930-03-21"],
         "importance": "1"
      }
      },
    {
      "type": "Feature",
      "geometry": {
        "type": "Point",
        "coordinates": [16.338016, 48.234091]
      },
      "properties": {
         "id": "pmb236372",
         "title": "Gregor-Mendel-Straße 34",
         "lat": "48.234091",
         "lon": "16.338016",
         "timestamp": ["1930-03-21"],
         "importance": "1"
      }
      },
    {
      "type": "Feature",
      "geometry": {
        "type": "Point",
        "coordinates": [16.33716, 48.23188]
      },
      "properties": {
         "id": "pmb168815",
         "title": "Sternwartestraße 71",
         "lat": "48.23188",
         "lon": "16.33716",
         "timestamp": ["1930-03-21"],
         "importance": "1"
      }
      }
  ]
}