{
  "type": "FeatureCollection",
  "features": [
    {
      "type": "Feature", 
      "geometry": {
        "type": "LineString", 
        "coordinates": [
            [16.2314, 48.00567], 
            [16.23264, 48.00543], 
            [16.35754, 48.05729], 
            [16.373056, 48.208333], 
            [16.367725, 48.212284], 
            [16.33716, 48.23188]
          ]
      },
      "properties": {
        "name": "24. Juni 1930"
      }
    },
    {
      "type": "Feature",
      "geometry": {
        "type": "Point",
        "coordinates": [16.373056, 48.208333]
      },
      "properties": {
         "id": "pmb50",
         "title": "Wien",
         "lat": "48.208333",
         "lon": "16.373056",
         "timestamp": ["1930-06-24"],
         "importance": "1", 
        "wikipedia": "https://de.wikipedia.org/wiki/Wien", 
        "wikidata": "http://www.wikidata.org/entity/Q1741"
      }
      },
    {
      "type": "Feature",
      "geometry": {
        "type": "Point",
        "coordinates": [16.23264, 48.00543]
      },
      "properties": {
         "id": "pmb662",
         "title": "Baden bei Wien",
         "lat": "48.00543",
         "lon": "16.23264",
         "timestamp": ["1930-06-24"],
         "importance": "1", 
        "wikipedia": "https://de.wikipedia.org/wiki/Baden_(Nieder%C3%B6sterreich)", 
        "wikidata": "http://www.wikidata.org/entity/Q486450"
      }
      },
    {
      "type": "Feature",
      "geometry": {
        "type": "Point",
        "coordinates": [16.367725, 48.212284]
      },
      "properties": {
         "id": "pmb207301",
         "title": "Tiefer Graben 17",
         "lat": "48.212284",
         "lon": "16.367725",
         "timestamp": ["1930-06-24"],
         "importance": "1"
      }
      },
    {
      "type": "Feature",
      "geometry": {
        "type": "Point",
        "coordinates": [16.2314, 48.00567]
      },
      "properties": {
         "id": "pmb239739",
         "title": "Café Schopf",
         "lat": "48.00567",
         "lon": "16.2314",
         "timestamp": ["1930-06-24"],
         "importance": "1"
      }
      },
    {
      "type": "Feature",
      "geometry": {
        "type": "Point",
        "coordinates": [16.35754, 48.05729]
      },
      "properties": {
         "id": "pmb2520",
         "title": "Laxenburg",
         "lat": "48.05729",
         "lon": "16.35754",
         "timestamp": ["1930-06-24"],
         "importance": "1", 
        "wikipedia": "https://de.wikipedia.org/wiki/Laxenburg", 
        "wikidata": "http://www.wikidata.org/entity/Q699437"
      }
      },
    {
      "type": "Feature",
      "geometry": {
        "type": "Point",
        "coordinates": [16.33716, 48.23188]
      },
      "properties": {
         "id": "pmb168815",
         "title": "Sternwartestraße 71",
         "lat": "48.23188",
         "lon": "16.33716",
         "timestamp": ["1930-06-24"],
         "importance": "1"
      }
      }
  ]
}