{
  "type": "FeatureCollection",
  "features": [
    {
      "type": "Feature", 
      "geometry": {
        "type": "LineString", 
        "coordinates": [
            [16.3067984, 48.1806202], 
            [16.374012, 48.183658], 
            [16.375, 48.205139], 
            [16.37092, 48.20576], 
            [16.37675, 48.20762], 
            [16.33716, 48.23188]
          ]
      },
      "properties": {
        "name": "28. April 1931"
      }
    },
    {
      "type": "Feature",
      "geometry": {
        "type": "Point",
        "coordinates": [16.3067984, 48.1806202]
      },
      "properties": {
         "id": "pmb92518",
         "title": "Schlosspark Schönbrunn",
         "lat": "48.1806202",
         "lon": "16.3067984",
         "timestamp": ["1931-04-28"],
         "importance": "1", 
        "wikidata": "http://www.wikidata.org/entity/Q21167264"
      }
      },
    {
      "type": "Feature",
      "geometry": {
        "type": "Point",
        "coordinates": [16.375, 48.205139]
      },
      "properties": {
         "id": "pmb19",
         "title": "Ronacher",
         "lat": "48.205139",
         "lon": "16.375",
         "timestamp": ["1931-04-28"],
         "importance": "1", 
        "wikipedia": "https://de.wikipedia.org/wiki/Ronacher", 
        "wikidata": "http://www.wikidata.org/entity/Q1244587"
      }
      },
    {
      "type": "Feature",
      "geometry": {
        "type": "Point",
        "coordinates": [16.37675, 48.20762]
      },
      "properties": {
         "id": "pmb235120",
         "title": "Schulerstraße 22",
         "lat": "48.20762",
         "lon": "16.37675",
         "timestamp": ["1931-04-28"],
         "importance": "1"
      }
      },
    {
      "type": "Feature",
      "geometry": {
        "type": "Point",
        "coordinates": [16.37092, 48.20576]
      },
      "properties": {
         "id": "pmb1120",
         "title": "Hotel Krantz",
         "lat": "48.20576",
         "lon": "16.37092",
         "timestamp": ["1931-04-28"],
         "importance": "1", 
        "wiengeschichtewiki": "https://www.geschichtewiki.wien.gv.at/Hotel_Krantz"
      }
      },
    {
      "type": "Feature",
      "geometry": {
        "type": "Point",
        "coordinates": [16.33716, 48.23188]
      },
      "properties": {
         "id": "pmb168815",
         "title": "Sternwartestraße 71",
         "lat": "48.23188",
         "lon": "16.33716",
         "timestamp": ["1931-04-28"],
         "importance": "1"
      }
      },
    {
      "type": "Feature",
      "geometry": {
        "type": "Point",
        "coordinates": [16.374012, 48.183658]
      },
      "properties": {
         "id": "pmb237033",
         "title": "Favoritenstraße 4–6",
         "lat": "48.183658",
         "lon": "16.374012",
         "timestamp": ["1931-04-28"],
         "importance": "1"
      }
      }
  ]
}