{
  "type": "FeatureCollection",
  "features": [
    {
      "type": "Feature", 
      "geometry": {
        "type": "LineString", 
        "coordinates": [
            [16.33716, 48.23188], 
            [16.338016, 48.234091], 
            [16.320833, 48.252222], 
            [16.320833, 48.252222], 
            [16.21667, 48.3], 
            [16.14492, 48.30198], 
            [16.23333, 48.26667]
          ]
      },
      "properties": {
        "name": "24. Mai 1931"
      }
    },
    {
      "type": "Feature",
      "geometry": {
        "type": "Point",
        "coordinates": [
          16.320833, 48.252222
        ]
      },
      "properties": {
        "title": "Sievering",
        "timestamp": ["1931-05-24"],
        "id": "pmb288", 
        "wikipedia": "https://de.wikipedia.org/wiki/Sievering"
      }
      },
    {
      "type": "Feature",
      "geometry": {
        "type": "Point",
        "coordinates": [
          16.338016, 48.234091
        ]
      },
      "properties": {
        "title": "Gregor-Mendel-Straße 34",
        "timestamp": ["1931-05-24"],
        "id": "pmb236372"
      }
      },
    {
      "type": "Feature",
      "geometry": {
        "type": "Point",
        "coordinates": [
          16.33716, 48.23188
        ]
      },
      "properties": {
        "title": "Sternwartestraße 71",
        "timestamp": ["1931-05-24"],
        "id": "pmb168815"
      }
      },
    {
      "type": "Feature",
      "geometry": {
        "type": "Point",
        "coordinates": [
          16.320833, 48.252222
        ]
      },
      "properties": {
        "title": "Sievering",
        "timestamp": ["1931-05-24"],
        "id": "pmb288", 
        "wikipedia": "https://de.wikipedia.org/wiki/Sievering"
      }
      },
    {
      "type": "Feature",
      "geometry": {
        "type": "Point",
        "coordinates": [
          16.21667, 48.3
        ]
      },
      "properties": {
        "title": "Hintersdorf",
        "timestamp": ["1931-05-24"],
        "id": "pmb90881"
      }
      },
    {
      "type": "Feature",
      "geometry": {
        "type": "Point",
        "coordinates": [
          16.14492, 48.30198
        ]
      },
      "properties": {
        "title": "Königstetten",
        "timestamp": ["1931-05-24"],
        "id": "pmb34354", 
        "wikipedia": "https://de.wikipedia.org/wiki/K%C3%B6nigstetten"
      }
      },
    {
      "type": "Feature",
      "geometry": {
        "type": "Point",
        "coordinates": [
          16.23333, 48.26667
        ]
      },
      "properties": {
        "title": "Steinriegl",
        "timestamp": ["1931-05-24"],
        "id": "pmb49210"
      }
      }
  ]
}