{
  "type": "FeatureCollection",
  "features": [
    {
      "type": "Feature", 
      "geometry": {
        "type": "LineString", 
        "coordinates": [
            [16.3067984, 48.1806202], 
            [16.32586, 48.17192], 
            [16.35032, 48.19522], 
            [16.371211, 48.206416], 
            [16.373523, 48.208915], 
            [16.3566, 48.205142], 
            [16.35137, 48.21346], 
            [16.33716, 48.23188]
          ]
      },
      "properties": {
        "name": "24. April 1931"
      }
    },
    {
      "type": "Feature",
      "geometry": {
        "type": "Point",
        "coordinates": [
          16.371211, 48.206416
        ]
      },
      "properties": {
        "title": "Meissl & Schadn",
        "timestamp": ["1931-04-24"],
        "id": "https://pmb.acdh.oeaw.ac.at/entity/pmb96/", 
        "wiengeschichtewiki": "https://www.geschichtewiki.wien.gv.at/Meissl_%26_Schadn"
      }
      },
    {
      "type": "Feature",
      "geometry": {
        "type": "Point",
        "coordinates": [
          16.3067984, 48.1806202
        ]
      },
      "properties": {
        "title": "Schlosspark Schönbrunn",
        "timestamp": ["1931-04-24"],
        "id": "https://pmb.acdh.oeaw.ac.at/entity/pmb92519/"
      }
      },
    {
      "type": "Feature",
      "geometry": {
        "type": "Point",
        "coordinates": [
          16.3566, 48.205142
        ]
      },
      "properties": {
        "title": "Volkstheater",
        "timestamp": ["1931-04-24"],
        "id": "https://pmb.acdh.oeaw.ac.at/entity/pmb20/", 
        "wikipedia": "https://de.wikipedia.org/wiki/Volkstheater_(Wien)", 
        "wiengeschichtewiki": "https://www.geschichtewiki.wien.gv.at/Special:URIResolver/?curid=6125"
      }
      },
    {
      "type": "Feature",
      "geometry": {
        "type": "Point",
        "coordinates": [
          16.35137, 48.21346
        ]
      },
      "properties": {
        "title": "Laudongasse 12",
        "timestamp": ["1931-04-24"],
        "id": "https://pmb.acdh.oeaw.ac.at/entity/pmb232800/"
      }
      },
    {
      "type": "Feature",
      "geometry": {
        "type": "Point",
        "coordinates": [
          16.33716, 48.23188
        ]
      },
      "properties": {
        "title": "Sternwartestraße 71",
        "timestamp": ["1931-04-24"],
        "id": "https://pmb.acdh.oeaw.ac.at/entity/pmb168815/"
      }
      },
    {
      "type": "Feature",
      "geometry": {
        "type": "Point",
        "coordinates": [
          16.32586, 48.17192
        ]
      },
      "properties": {
        "title": "XII., Meidling",
        "timestamp": ["1931-04-24"],
        "id": "https://pmb.acdh.oeaw.ac.at/entity/pmb62/", 
        "wikipedia": "https://de.wikipedia.org/wiki/Meidling_(Wiener_Bezirksteil) https://de.wikipedia.org/wiki/Meidling"
      }
      },
    {
      "type": "Feature",
      "geometry": {
        "type": "Point",
        "coordinates": [
          16.35032, 48.19522
        ]
      },
      "properties": {
        "title": "VI., Mariahilf",
        "timestamp": ["1931-04-24"],
        "id": "https://pmb.acdh.oeaw.ac.at/entity/pmb56/", 
        "wikipedia": "https://de.wikipedia.org/wiki/Mariahilf"
      }
      },
    {
      "type": "Feature",
      "geometry": {
        "type": "Point",
        "coordinates": [
          16.373523, 48.208915
        ]
      },
      "properties": {
        "title": "J. Heindl, Kunst- und Paramentenhandlung",
        "timestamp": ["1931-04-24"],
        "id": "https://pmb.acdh.oeaw.ac.at/entity/pmb244937/"
      }
      }
  ]
}