{
  "type": "FeatureCollection",
  "features": [
    {
      "type": "Feature", 
      "geometry": {
        "type": "LineString", 
        "coordinates": [
            [16.3133253, 48.1807992], 
            [16.31866, 48.18382], 
            [16.337778, 48.196667], 
            [16.3731991, 48.1855867], 
            [16.33716, 48.23188], 
            [16.32619, 48.23309]
          ]
      },
      "properties": {
        "name": "20. Mai 1931"
      }
    },
    {
      "type": "Feature",
      "geometry": {
        "type": "Point",
        "coordinates": [
          16.3133253, 48.1807992
        ]
      },
      "properties": {
        "title": "Römische Ruine [Schlosspark Schönbrunn]",
        "timestamp": ["1931-05-20"],
        "id": "https://pmb.acdh.oeaw.ac.at/entity/pmb200859/"
      }
      },
    {
      "type": "Feature",
      "geometry": {
        "type": "Point",
        "coordinates": [
          16.337778, 48.196667
        ]
      },
      "properties": {
        "title": "Westbahnhof",
        "timestamp": ["1931-05-20"],
        "id": "https://pmb.acdh.oeaw.ac.at/entity/pmb184918/", 
        "wikipedia": "https://de.wikipedia.org/wiki/Wien_Westbahnhof"
      }
      },
    {
      "type": "Feature",
      "geometry": {
        "type": "Point",
        "coordinates": [
          16.3731991, 48.1855867
        ]
      },
      "properties": {
        "title": "Ostbahnhof [Wien]",
        "timestamp": ["1931-05-20"],
        "id": "https://pmb.acdh.oeaw.ac.at/entity/pmb60254/", 
        "wikipedia": "https://de.wikipedia.org/wiki/Wien_Ostbahnhof", 
        "wiengeschichtewiki": "https://www.geschichtewiki.wien.gv.at/Ostbahnhof"
      }
      },
    {
      "type": "Feature",
      "geometry": {
        "type": "Point",
        "coordinates": [
          16.33716, 48.23188
        ]
      },
      "properties": {
        "title": "Sternwartestraße 71",
        "timestamp": ["1931-05-20"],
        "id": "https://pmb.acdh.oeaw.ac.at/entity/pmb168815/"
      }
      },
    {
      "type": "Feature",
      "geometry": {
        "type": "Point",
        "coordinates": [
          16.32619, 48.23309
        ]
      },
      "properties": {
        "title": "Ferrogasse 16",
        "timestamp": ["1931-05-20"],
        "id": "https://pmb.acdh.oeaw.ac.at/entity/pmb244453/"
      }
      },
    {
      "type": "Feature",
      "geometry": {
        "type": "Point",
        "coordinates": [
          16.31866, 48.18382
        ]
      },
      "properties": {
        "title": "Café Schlößl",
        "timestamp": ["1931-05-20"],
        "id": "https://pmb.acdh.oeaw.ac.at/entity/pmb239834/"
      }
      }
  ]
}