{
  "type": "FeatureCollection",
  "features": [
    {
      "type": "Feature", 
      "geometry": {
        "type": "LineString", 
        "coordinates": [
            [16.353657, 48.20208], 
            [16.3566, 48.205142], 
            [16.35137, 48.21346], 
            [16.339749, 48.229379], 
            [16.33716, 48.23188]
          ]
      },
      "properties": {
        "name": "19. Mai 1931"
      }
    },
    {
      "type": "Feature",
      "geometry": {
        "type": "Point",
        "coordinates": [
          16.3566, 48.205142
        ]
      },
      "properties": {
        "title": "Volkstheater",
        "timestamp": ["1931-05-19"],
        "pmb": "https://pmb.acdh.oeaw.ac.at/entity/pmb20/", 
        "wikipedia": "https://de.wikipedia.org/wiki/Volkstheater_(Wien)", 
        "wiengeschichtewiki": "https://www.geschichtewiki.wien.gv.at/Special:URIResolver/?curid=6125"
      }
      },
    {
      "type": "Feature",
      "geometry": {
        "type": "Point",
        "coordinates": [
          16.353657, 48.20208
        ]
      },
      "properties": {
        "title": "Restaurant Schöner",
        "timestamp": ["1931-05-19"],
        "pmb": "https://pmb.acdh.oeaw.ac.at/entity/pmb237711/", 
        "wikipedia": "https://de.wikipedia.org/wiki/Restaurant_Sch%C3%B6ner"
      }
      },
    {
      "type": "Feature",
      "geometry": {
        "type": "Point",
        "coordinates": [
          16.339749, 48.229379
        ]
      },
      "properties": {
        "title": "Haizingergasse",
        "timestamp": ["1931-05-19"],
        "pmb": "https://pmb.acdh.oeaw.ac.at/entity/pmb92269/"
      }
      },
    {
      "type": "Feature",
      "geometry": {
        "type": "Point",
        "coordinates": [
          16.33716, 48.23188
        ]
      },
      "properties": {
        "title": "Sternwartestraße 71",
        "timestamp": ["1931-05-19"],
        "pmb": "https://pmb.acdh.oeaw.ac.at/entity/pmb168815/"
      }
      },
    {
      "type": "Feature",
      "geometry": {
        "type": "Point",
        "coordinates": [
          16.35137, 48.21346
        ]
      },
      "properties": {
        "title": "Laudongasse 12",
        "timestamp": ["1931-05-19"],
        "pmb": "https://pmb.acdh.oeaw.ac.at/entity/pmb232800/"
      }
      }
  ]
}