{
  "type": "FeatureCollection",
  "features": [
    {
      "type": "Feature", 
      "geometry": {
        "type": "LineString", 
        "coordinates": [
            [16.28456, 48.17318], 
            [16.284721, 48.172685], 
            [16.364347, 48.195141], 
            [16.367998, 48.203159], 
            [16.373056, 48.208333], 
            [16.33716, 48.23188], 
            [16.33641, 48.23362]
          ]
      },
      "properties": {
        "name": "5. August 1931"
      }
    },
    {
      "type": "Feature",
      "geometry": {
        "type": "Point",
        "coordinates": [16.373056, 48.208333]
      },
      "properties": {
         "id": "pmb50",
         "title": "Wien",
         "lat": "48.208333",
         "lon": "16.373056",
         "timestamp": ["1931-08-05"],
         "importance": "1", 
        "wikipedia": "https://de.wikipedia.org/wiki/Wien", 
        "wikidata": "http://www.wikidata.org/entity/Q1741"
      }
      },
    {
      "type": "Feature",
      "geometry": {
        "type": "Point",
        "coordinates": [16.367998, 48.203159]
      },
      "properties": {
         "id": "pmb185989",
         "title": "Opernrestaurant",
         "lat": "48.203159",
         "lon": "16.367998",
         "timestamp": ["1931-08-05"],
         "importance": "1"
      }
      },
    {
      "type": "Feature",
      "geometry": {
        "type": "Point",
        "coordinates": [16.33641, 48.23362]
      },
      "properties": {
         "id": "pmb235132",
         "title": "Türkenschanzstraße 48",
         "lat": "48.23362",
         "lon": "16.33641",
         "timestamp": ["1931-08-05"],
         "importance": "1"
      }
      },
    {
      "type": "Feature",
      "geometry": {
        "type": "Point",
        "coordinates": [16.364347, 48.195141]
      },
      "properties": {
         "id": "pmb245221",
         "title": "Hotel St. James",
         "lat": "48.195141",
         "lon": "16.364347",
         "timestamp": ["1931-08-05"],
         "importance": "1"
      }
      },
    {
      "type": "Feature",
      "geometry": {
        "type": "Point",
        "coordinates": [16.28456, 48.17318]
      },
      "properties": {
         "id": "pmb236355",
         "title": "Gasthaus Weide",
         "lat": "48.17318",
         "lon": "16.28456",
         "timestamp": ["1931-08-05"],
         "importance": "1"
      }
      },
    {
      "type": "Feature",
      "geometry": {
        "type": "Point",
        "coordinates": [16.284721, 48.172685]
      },
      "properties": {
         "id": "pmb245228",
         "title": "Café Mucha",
         "lat": "48.172685",
         "lon": "16.284721",
         "timestamp": ["1931-08-05"],
         "importance": "1"
      }
      },
    {
      "type": "Feature",
      "geometry": {
        "type": "Point",
        "coordinates": [16.33716, 48.23188]
      },
      "properties": {
         "id": "pmb168815",
         "title": "Sternwartestraße 71",
         "lat": "48.23188",
         "lon": "16.33716",
         "timestamp": ["1931-08-05"],
         "importance": "1"
      }
      }
  ]
}