{
  "type": "FeatureCollection",
  "features": [
    {
      "type": "Feature", 
      "geometry": {
        "type": "LineString", 
        "coordinates": [
            [16.353657, 48.20208], 
            [16.3566, 48.205142], 
            [16.362946, 48.214527], 
            [16.341944, 48.233056], 
            [16.33716, 48.23188]
          ]
      },
      "properties": {
        "name": "4. September 1931"
      }
    },
    {
      "type": "Feature",
      "geometry": {
        "type": "Point",
        "coordinates": [
          16.3566, 48.205142
        ]
      },
      "properties": {
        "title": "Volkstheater",
        "timestamp": ["1931-09-04"],
        "pmb": "https://pmb.acdh.oeaw.ac.at/entity/pmb20/", 
        "wikipedia": "https://de.wikipedia.org/wiki/Volkstheater_(Wien)", 
        "wiengeschichtewiki": "https://www.geschichtewiki.wien.gv.at/Special:URIResolver/?curid=6125"
      }
      },
    {
      "type": "Feature",
      "geometry": {
        "type": "Point",
        "coordinates": [
          16.353657, 48.20208
        ]
      },
      "properties": {
        "title": "Restaurant Schöner",
        "timestamp": ["1931-09-04"],
        "pmb": "https://pmb.acdh.oeaw.ac.at/entity/pmb237711/", 
        "wikipedia": "https://de.wikipedia.org/wiki/Restaurant_Sch%C3%B6ner"
      }
      },
    {
      "type": "Feature",
      "geometry": {
        "type": "Point",
        "coordinates": [
          16.362946, 48.214527
        ]
      },
      "properties": {
        "title": "Hotel de France",
        "timestamp": ["1931-09-04"],
        "pmb": "https://pmb.acdh.oeaw.ac.at/entity/pmb337/", 
        "wikipedia": "https://de.wikipedia.org/wiki/Hotel_de_France_(Wien)"
      }
      },
    {
      "type": "Feature",
      "geometry": {
        "type": "Point",
        "coordinates": [
          16.341944, 48.233056
        ]
      },
      "properties": {
        "title": "Währinger Cottage",
        "timestamp": ["1931-09-04"],
        "pmb": "https://pmb.acdh.oeaw.ac.at/entity/pmb533/", 
        "wikipedia": "https://de.wikipedia.org/wiki/Cottageviertel"
      }
      },
    {
      "type": "Feature",
      "geometry": {
        "type": "Point",
        "coordinates": [
          16.33716, 48.23188
        ]
      },
      "properties": {
        "title": "Sternwartestraße 71",
        "timestamp": ["1931-09-04"],
        "pmb": "https://pmb.acdh.oeaw.ac.at/entity/pmb168815/"
      }
      }
  ]
}