{
  "type": "FeatureCollection",
  "features": [
    {
      "type": "Feature", 
      "geometry": {
        "type": "LineString", 
        "coordinates": [
            [16.3067984, 48.1806202], 
            [16.374012, 48.183658], 
            [16.375, 48.205139], 
            [16.37092, 48.20576], 
            [16.37675, 48.20762], 
            [16.33716, 48.23188]
          ]
      },
      "properties": {
        "name": "28. April 1931"
      }
    },
    {
      "type": "Feature",
      "geometry": {
        "type": "Point",
        "coordinates": [
          16.3067984, 48.1806202
        ]
      },
      "properties": {
        "title": "Schlosspark Schönbrunn",
        "timestamp": ["1931-04-28"],
        "pmb": "https://pmb.acdh.oeaw.ac.at/entity/pmb92519/"
      }
      },
    {
      "type": "Feature",
      "geometry": {
        "type": "Point",
        "coordinates": [
          16.375, 48.205139
        ]
      },
      "properties": {
        "title": "Ronacher",
        "timestamp": ["1931-04-28"],
        "pmb": "https://pmb.acdh.oeaw.ac.at/entity/pmb19/", 
        "wikipedia": "https://de.wikipedia.org/wiki/Ronacher"
      }
      },
    {
      "type": "Feature",
      "geometry": {
        "type": "Point",
        "coordinates": [
          16.37092, 48.20576
        ]
      },
      "properties": {
        "title": "Hotel Krantz",
        "timestamp": ["1931-04-28"],
        "pmb": "https://pmb.acdh.oeaw.ac.at/entity/pmb1120/", 
        "wiengeschichtewiki": "https://www.geschichtewiki.wien.gv.at/Hotel_Krantz"
      }
      },
    {
      "type": "Feature",
      "geometry": {
        "type": "Point",
        "coordinates": [
          16.33716, 48.23188
        ]
      },
      "properties": {
        "title": "Sternwartestraße 71",
        "timestamp": ["1931-04-28"],
        "pmb": "https://pmb.acdh.oeaw.ac.at/entity/pmb168815/"
      }
      },
    {
      "type": "Feature",
      "geometry": {
        "type": "Point",
        "coordinates": [
          16.37675, 48.20762
        ]
      },
      "properties": {
        "title": "Schulerstraße 22",
        "timestamp": ["1931-04-28"],
        "pmb": "https://pmb.acdh.oeaw.ac.at/entity/pmb235120/"
      }
      },
    {
      "type": "Feature",
      "geometry": {
        "type": "Point",
        "coordinates": [
          16.374012, 48.183658
        ]
      },
      "properties": {
        "title": "Favoritenstraße 6",
        "timestamp": ["1931-04-28"],
        "pmb": "https://pmb.acdh.oeaw.ac.at/entity/pmb237033/"
      }
      }
  ]
}