{
  "type": "FeatureCollection",
  "features": [
    {
      "type": "Feature", 
      "geometry": {
        "type": "LineString", 
        "coordinates": [
            [16.353657, 48.20208], 
            [16.3566, 48.205142], 
            [16.3691, 48.203], 
            [16.33716, 48.23188], 
            [16.28610371233, 48.233119188484]
          ]
      },
      "properties": {
        "name": "29. Juni 1931"
      }
    },
    {
      "type": "Feature",
      "geometry": {
        "type": "Point",
        "coordinates": [
          16.28610371233, 48.233119188484
        ]
      },
      "properties": {
        "title": "Neuwaldegg",
        "timestamp": ["1931-06-29"],
        "pmb": "https://pmb.acdh.oeaw.ac.at/entity/pmb170/"
      }
      },
    {
      "type": "Feature",
      "geometry": {
        "type": "Point",
        "coordinates": [
          16.3691, 48.203
        ]
      },
      "properties": {
        "title": "Oper",
        "timestamp": ["1931-06-29"],
        "pmb": "https://pmb.acdh.oeaw.ac.at/entity/pmb15/", 
        "wikipedia": "https://de.wikipedia.org/wiki/Wiener_Staatsoper"
      }
      },
    {
      "type": "Feature",
      "geometry": {
        "type": "Point",
        "coordinates": [
          16.3566, 48.205142
        ]
      },
      "properties": {
        "title": "Volkstheater",
        "timestamp": ["1931-06-29"],
        "pmb": "https://pmb.acdh.oeaw.ac.at/entity/pmb20/", 
        "wikipedia": "https://de.wikipedia.org/wiki/Volkstheater_(Wien)", 
        "wiengeschichtewiki": "https://www.geschichtewiki.wien.gv.at/Special:URIResolver/?curid=6125"
      }
      },
    {
      "type": "Feature",
      "geometry": {
        "type": "Point",
        "coordinates": [
          16.353657, 48.20208
        ]
      },
      "properties": {
        "title": "Restaurant Schöner",
        "timestamp": ["1931-06-29"],
        "pmb": "https://pmb.acdh.oeaw.ac.at/entity/pmb237711/", 
        "wikipedia": "https://de.wikipedia.org/wiki/Restaurant_Sch%C3%B6ner"
      }
      },
    {
      "type": "Feature",
      "geometry": {
        "type": "Point",
        "coordinates": [
          16.33716, 48.23188
        ]
      },
      "properties": {
        "title": "Sternwartestraße 71",
        "timestamp": ["1931-06-29"],
        "pmb": "https://pmb.acdh.oeaw.ac.at/entity/pmb168815/"
      }
      }
  ]
}