{
  "type": "FeatureCollection",
  "features": [
    {
      "type": "Feature", 
      "geometry": {
        "type": "LineString", 
        "coordinates": [
            [16.28456, 48.17318], 
            [16.284721, 48.172685], 
            [16.364347, 48.195141], 
            [16.367998, 48.203159], 
            [16.33716, 48.23188], 
            [16.33641, 48.23362]
          ]
      },
      "properties": {
        "name": "5. August 1931"
      }
    },
    {
      "type": "Feature",
      "geometry": {
        "type": "Point",
        "coordinates": [
          16.367998, 48.203159
        ]
      },
      "properties": {
        "title": "Opernrestaurant",
        "timestamp": ["1931-08-05"],
        "id": "pmb185989"
      }
      },
    {
      "type": "Feature",
      "geometry": {
        "type": "Point",
        "coordinates": [
          16.33641, 48.23362
        ]
      },
      "properties": {
        "title": "Türkenschanzstraße 48",
        "timestamp": ["1931-08-05"],
        "id": "pmb235132"
      }
      },
    {
      "type": "Feature",
      "geometry": {
        "type": "Point",
        "coordinates": [
          16.33716, 48.23188
        ]
      },
      "properties": {
        "title": "Sternwartestraße 71",
        "timestamp": ["1931-08-05"],
        "id": "pmb168815"
      }
      },
    {
      "type": "Feature",
      "geometry": {
        "type": "Point",
        "coordinates": [
          16.364347, 48.195141
        ]
      },
      "properties": {
        "title": "Hotel St. James",
        "timestamp": ["1931-08-05"],
        "id": "pmb245221"
      }
      },
    {
      "type": "Feature",
      "geometry": {
        "type": "Point",
        "coordinates": [
          16.28456, 48.17318
        ]
      },
      "properties": {
        "title": "Gasthaus Weide",
        "timestamp": ["1931-08-05"],
        "id": "pmb236355"
      }
      },
    {
      "type": "Feature",
      "geometry": {
        "type": "Point",
        "coordinates": [
          16.284721, 48.172685
        ]
      },
      "properties": {
        "title": "Café Mucha",
        "timestamp": ["1931-08-05"],
        "id": "pmb245228"
      }
      }
  ]
}