{
  "type": "FeatureCollection",
  "features": [
    {
      "type": "Feature", 
      "geometry": {
        "type": "LineString", 
        "coordinates": [
            [13.64912, 47.56231], 
            [13.81667, 47.61667], 
            [13.61893, 47.71109], 
            [13.61893, 47.71109], 
            [13.37969, 47.82715], 
            [13.40538, 47.74648], 
            [13.038611, 47.788333]
          ]
      },
      "properties": {
        "name": "11. August 1881"
      }
    },
                     
    {
      "type": "Feature",
      "geometry": {
        "type": "Point",
        "coordinates": [
          13.61893, 47.71109
        ]
      },
      "properties": {
         "title": "Bad Ischl"
      }
      },
                     
    {
      "type": "Feature",
      "geometry": {
        "type": "Point",
        "coordinates": [
          13.64912, 47.56231
        ]
      },
      "properties": {
         "title": "Hallstatt"
      }
      },
                     
    {
      "type": "Feature",
      "geometry": {
        "type": "Point",
        "coordinates": [
          13.81667, 47.61667
        ]
      },
      "properties": {
         "title": "Grundlsee (Gemeinde)"
      }
      },
                     
    {
      "type": "Feature",
      "geometry": {
        "type": "Point",
        "coordinates": [
          13.37969, 47.82715
        ]
      },
      "properties": {
         "title": "Mondsee"
      }
      },
                     
    {
      "type": "Feature",
      "geometry": {
        "type": "Point",
        "coordinates": [
          13.40538, 47.74648
        ]
      },
      "properties": {
         "title": "Wolfgangsee"
      }
      },
                     
    {
      "type": "Feature",
      "geometry": {
        "type": "Point",
        "coordinates": [
          13.038611, 47.788333
        ]
      },
      "properties": {
         "title": "Schloss Leopoldskron"
      }
      },
                     
    {
      "type": "Feature",
      "geometry": {
        "type": "Point",
        "coordinates": [
          13.61893, 47.71109
        ]
      },
      "properties": {
         "title": "Bad Ischl"
      }
      }
                  
  ]
}