{
  "type": "FeatureCollection",
  "features": [
    {
      "type": "Feature", 
      "geometry": {
        "type": "LineString", 
        "coordinates": [
            [16.3642, 48.19941], 
            [16.364351, 48.199478], 
            [16.36946, 48.20138], 
            [16.38735, 48.19422], 
            [16.373056, 48.208333], 
            [16.362757, 48.213278]
          ]
      },
      "properties": {
        "name": "23. Dezember 1882"
      }
    },
                     
    {
      "type": "Feature",
      "geometry": {
        "type": "Point",
        "coordinates": [
          16.373056, 48.208333
        ]
      },
      "properties": {
         "title": "Wien"
      }
      },
                     
    {
      "type": "Feature",
      "geometry": {
        "type": "Point",
        "coordinates": [
          16.36946, 48.20138
        ]
      },
      "properties": {
         "title": "Leidingers Restauration"
      }
      },
                     
    {
      "type": "Feature",
      "geometry": {
        "type": "Point",
        "coordinates": [
          16.38735, 48.19422
        ]
      },
      "properties": {
         "title": "Café Aspang"
      }
      },
                     
    {
      "type": "Feature",
      "geometry": {
        "type": "Point",
        "coordinates": [
          16.362757, 48.213278
        ]
      },
      "properties": {
         "title": "Café Hobiger"
      }
      },
                     
    {
      "type": "Feature",
      "geometry": {
        "type": "Point",
        "coordinates": [
          16.3642, 48.19941
        ]
      },
      "properties": {
         "title": "Theater an der Wien"
      }
      },
                     
    {
      "type": "Feature",
      "geometry": {
        "type": "Point",
        "coordinates": [
          16.364351, 48.199478
        ]
      },
      "properties": {
         "title": "Wiednertheater"
      }
      }
                  
  ]
}