{
  "type": "FeatureCollection",
  "features": [
    {
      "type": "Feature", 
      "geometry": {
        "type": "LineString", 
        "coordinates": [
            [-1.29772, 50.76306], 
            [-1.29124, 50.70146], 
            [-1.1621, 50.72999], 
            [-0.0516, 51.4506], 
            [-0.174938, 51.495309]
          ]
      },
      "properties": {
        "name": "25. Juli 1888"
      }
    },
                     
    {
      "type": "Feature",
      "geometry": {
        "type": "Point",
        "coordinates": [
          -0.174938, 51.495309
        ]
      },
      "properties": {
         "title": "Cromwell Place"
      }
      },
                     
    {
      "type": "Feature",
      "geometry": {
        "type": "Point",
        "coordinates": [
          -1.29124, 50.70146
        ]
      },
      "properties": {
         "title": "Newport"
      }
      },
                     
    {
      "type": "Feature",
      "geometry": {
        "type": "Point",
        "coordinates": [
          -1.29772, 50.76306
        ]
      },
      "properties": {
         "title": "Cowes"
      }
      },
                     
    {
      "type": "Feature",
      "geometry": {
        "type": "Point",
        "coordinates": [
          -0.0516, 51.4506
        ]
      },
      "properties": {
         "title": "Honor Oak"
      }
      },
                     
    {
      "type": "Feature",
      "geometry": {
        "type": "Point",
        "coordinates": [
          -1.1621, 50.72999
        ]
      },
      "properties": {
         "title": "Ryde"
      }
      }
                  
  ]
}