{
  "type": "FeatureCollection",
  "features": [
    {
      "type": "Feature", 
      "geometry": {
        "type": "LineString", 
        "coordinates": [
            [13.377722222222, 52.516272222222], 
            [13.387238, 52.518762], 
            [13.41053, 52.52437], 
            [13.377222, 52.526944], 
            [13.382101, 52.52436]
          ]
      },
      "properties": {
        "name": "21. April 1888"
      }
    },
                     
    {
      "type": "Feature",
      "geometry": {
        "type": "Point",
        "coordinates": [
          13.41053, 52.52437
        ]
      },
      "properties": {
         "title": "Berlin"
      }
      },
                     
    {
      "type": "Feature",
      "geometry": {
        "type": "Point",
        "coordinates": [
          13.387238, 52.518762
        ]
      },
      "properties": {
         "title": "Dorotheenstraße 60"
      }
      },
                     
    {
      "type": "Feature",
      "geometry": {
        "type": "Point",
        "coordinates": [
          13.377222, 52.526944
        ]
      },
      "properties": {
         "title": "Charité"
      }
      },
                     
    {
      "type": "Feature",
      "geometry": {
        "type": "Point",
        "coordinates": [
          13.377722222222, 52.516272222222
        ]
      },
      "properties": {
         "title": "Brandenburger Tor"
      }
      },
                     
    {
      "type": "Feature",
      "geometry": {
        "type": "Point",
        "coordinates": [
          13.382101, 52.52436
        ]
      },
      "properties": {
         "title": "Friedrich-Wilhelm-Städtisches Theater"
      }
      }
                  
  ]
}