{
  "type": "FeatureCollection",
  "features": [
    {
      "type": "Feature", 
      "geometry": {
        "type": "LineString", 
        "coordinates": [
            [12.35, 45.38333], 
            [12.342397222222, 45.439216666667], 
            [12.338433, 45.434172], 
            [12.336106, 45.4328], 
            [12.33265, 45.43713], 
            [12.33471, 45.43062], 
            [12.32221, 45.44128], 
            [12.32798, 45.431245]
          ]
      },
      "properties": {
        "name": "19. September 1892"
      }
    },
                     
    {
      "type": "Feature",
      "geometry": {
        "type": "Point",
        "coordinates": [
          12.33265, 45.43713
        ]
      },
      "properties": {
         "title": "Venedig"
      }
      },
                     
    {
      "type": "Feature",
      "geometry": {
        "type": "Point",
        "coordinates": [
          12.336106, 45.4328
        ]
      },
      "properties": {
         "title": "Grand Hotel Bauer-Grünwald"
      }
      },
                     
    {
      "type": "Feature",
      "geometry": {
        "type": "Point",
        "coordinates": [
          12.32798, 45.431245
        ]
      },
      "properties": {
         "title": "Gallerie dell’Accademia"
      }
      },
                     
    {
      "type": "Feature",
      "geometry": {
        "type": "Point",
        "coordinates": [
          12.32221, 45.44128
        ]
      },
      "properties": {
         "title": "Santa Maria degli Scalzi"
      }
      },
                     
    {
      "type": "Feature",
      "geometry": {
        "type": "Point",
        "coordinates": [
          12.342397222222, 45.439216666667
        ]
      },
      "properties": {
         "title": "Santi Giovanni e Paolo"
      }
      },
                     
    {
      "type": "Feature",
      "geometry": {
        "type": "Point",
        "coordinates": [
          12.33471, 45.43062
        ]
      },
      "properties": {
         "title": "Santa Maria della Salute"
      }
      },
                     
    {
      "type": "Feature",
      "geometry": {
        "type": "Point",
        "coordinates": [
          12.35, 45.38333
        ]
      },
      "properties": {
         "title": "Lido"
      }
      },
                     
    {
      "type": "Feature",
      "geometry": {
        "type": "Point",
        "coordinates": [
          12.338433, 45.434172
        ]
      },
      "properties": {
         "title": "Markusplatz"
      }
      }
                  
  ]
}