{
  "type": "FeatureCollection",
  "features": [
    {
      "type": "Feature", 
      "geometry": {
        "type": "LineString", 
        "coordinates": [
            [16.36714, 48.19198], 
            [16.366827, 48.195902], 
            [16.365171, 48.203037], 
            [16.37341, 48.2066], 
            [16.3589854, 48.2139714], 
            [16.357353835756, 48.212643768549]
          ]
      },
      "properties": {
        "name": "24. Oktober 1893"
      }
    },
                     
    {
      "type": "Feature",
      "geometry": {
        "type": "Point",
        "coordinates": [
          16.37341, 48.2066
        ]
      },
      "properties": {
         "title": "Wien"
      }
      },
                     
    {
      "type": "Feature",
      "geometry": {
        "type": "Point",
        "coordinates": [
          16.357353835756, 48.212643768549
        ]
      },
      "properties": {
         "title": "Grillparzerstraße"
      }
      },
                     
    {
      "type": "Feature",
      "geometry": {
        "type": "Point",
        "coordinates": [
          16.3589854, 48.2139714
        ]
      },
      "properties": {
         "title": "Café Arkaden"
      }
      },
                     
    {
      "type": "Feature",
      "geometry": {
        "type": "Point",
        "coordinates": [
          16.366827, 48.195902
        ]
      },
      "properties": {
         "title": "Paulanergasse"
      }
      },
                     
    {
      "type": "Feature",
      "geometry": {
        "type": "Point",
        "coordinates": [
          16.365171, 48.203037
        ]
      },
      "properties": {
         "title": "Opernring 19"
      }
      },
                     
    {
      "type": "Feature",
      "geometry": {
        "type": "Point",
        "coordinates": [
          16.36714, 48.19198
        ]
      },
      "properties": {
         "title": "IV., Wieden"
      }
      }
                  
  ]
}