{
  "type": "FeatureCollection",
  "features": [
    {
      "type": "Feature", 
      "geometry": {
        "type": "LineString", 
        "coordinates": [
            [13.64868, 47.563638], 
            [13.64912, 47.56231], 
            [13.664415, 47.74078], 
            [13.61893, 47.71109], 
            [13.61758, 47.713083], 
            [13.609575, 47.706537]
          ]
      },
      "properties": {
        "name": "22. August 1894"
      }
    },
                     
    {
      "type": "Feature",
      "geometry": {
        "type": "Point",
        "coordinates": [
          13.61893, 47.71109
        ]
      },
      "properties": {
         "title": "Bad Ischl"
      }
      },
                     
    {
      "type": "Feature",
      "geometry": {
        "type": "Point",
        "coordinates": [
          13.609575, 47.706537
        ]
      },
      "properties": {
         "title": "Hotel und Pension Rudolfshöhe (Leopold Petter)"
      }
      },
                     
    {
      "type": "Feature",
      "geometry": {
        "type": "Point",
        "coordinates": [
          13.64868, 47.563638
        ]
      },
      "properties": {
         "title": "Beinhaus Hallstatt"
      }
      },
                     
    {
      "type": "Feature",
      "geometry": {
        "type": "Point",
        "coordinates": [
          13.61758, 47.713083
        ]
      },
      "properties": {
         "title": "Eglmoosgasse"
      }
      },
                     
    {
      "type": "Feature",
      "geometry": {
        "type": "Point",
        "coordinates": [
          13.664415, 47.74078
        ]
      },
      "properties": {
         "title": "Ebenseerstraße"
      }
      },
                     
    {
      "type": "Feature",
      "geometry": {
        "type": "Point",
        "coordinates": [
          13.64912, 47.56231
        ]
      },
      "properties": {
         "title": "Hallstatt"
      }
      }
                  
  ]
}