{
  "type": "FeatureCollection",
  "features": [
    {
      "type": "Feature", 
      "geometry": {
        "type": "LineString", 
        "coordinates": [
            [13.48333, 47.71667], 
            [13.609575, 47.706537], 
            [13.61893, 47.71109], 
            [13.44666, 47.73932], 
            [13.48663, 47.723293]
          ]
      },
      "properties": {
        "name": "30. August 1894"
      }
    },
                     
    {
      "type": "Feature",
      "geometry": {
        "type": "Point",
        "coordinates": [
          13.61893, 47.71109
        ]
      },
      "properties": {
         "title": "Bad Ischl"
      }
      },
                     
    {
      "type": "Feature",
      "geometry": {
        "type": "Point",
        "coordinates": [
          13.609575, 47.706537
        ]
      },
      "properties": {
         "title": "Hotel und Pension Rudolfshöhe (Leopold Petter)"
      }
      },
                     
    {
      "type": "Feature",
      "geometry": {
        "type": "Point",
        "coordinates": [
          13.44666, 47.73932
        ]
      },
      "properties": {
         "title": "Sankt Wolfgang im Salzkammergut"
      }
      },
                     
    {
      "type": "Feature",
      "geometry": {
        "type": "Point",
        "coordinates": [
          13.48333, 47.71667
        ]
      },
      "properties": {
         "title": "Strobl"
      }
      },
                     
    {
      "type": "Feature",
      "geometry": {
        "type": "Point",
        "coordinates": [
          13.48663, 47.723293
        ]
      },
      "properties": {
         "title": "Pürglstein"
      }
      }
                  
  ]
}