{
  "type": "FeatureCollection",
  "features": [
    {
      "type": "Feature", 
      "geometry": {
        "type": "LineString", 
        "coordinates": [
            [15.8634, 47.69209], 
            [15.8725, 47.65683], 
            [15.93893, 47.67487], 
            [16.373056, 48.208333], 
            [16.365171, 48.203037]
          ]
      },
      "properties": {
        "name": "14. Mai 1894"
      }
    },
                     
    {
      "type": "Feature",
      "geometry": {
        "type": "Point",
        "coordinates": [
          16.373056, 48.208333
        ]
      },
      "properties": {
         "title": "Wien"
      }
      },
                     
    {
      "type": "Feature",
      "geometry": {
        "type": "Point",
        "coordinates": [
          15.8634, 47.69209
        ]
      },
      "properties": {
         "title": "Payerbach"
      }
      },
                     
    {
      "type": "Feature",
      "geometry": {
        "type": "Point",
        "coordinates": [
          15.8725, 47.65683
        ]
      },
      "properties": {
         "title": "Schottwien"
      }
      },
                     
    {
      "type": "Feature",
      "geometry": {
        "type": "Point",
        "coordinates": [
          15.93893, 47.67487
        ]
      },
      "properties": {
         "title": "Gloggnitz"
      }
      },
                     
    {
      "type": "Feature",
      "geometry": {
        "type": "Point",
        "coordinates": [
          16.365171, 48.203037
        ]
      },
      "properties": {
         "title": "Opernring 19"
      }
      }
                  
  ]
}