{
  "type": "FeatureCollection",
  "features": [
    {
      "type": "Feature", 
      "geometry": {
        "type": "LineString", 
        "coordinates": [
            [16.36103888888889, 48.2018], 
            [16.361411, 48.202208], 
            [16.360584, 48.194996], 
            [16.366111, 48.208258], 
            [16.374444444444, 48.211944444444], 
            [16.371916, 48.212604], 
            [16.345264113127, 48.222471880213]
          ]
      },
      "properties": {
        "name": "23. Januar 1895"
      }
    },
                     
    {
      "type": "Feature",
      "geometry": {
        "type": "Point",
        "coordinates": [
          16.360584, 48.194996
        ]
      },
      "properties": {
         "title": "Zur goldenen Glocke [5. Bezirk]"
      }
      },
                     
    {
      "type": "Feature",
      "geometry": {
        "type": "Point",
        "coordinates": [
          16.366111, 48.208258
        ]
      },
      "properties": {
         "title": "Café Griensteidl"
      }
      },
                     
    {
      "type": "Feature",
      "geometry": {
        "type": "Point",
        "coordinates": [
          16.361411, 48.202208
        ]
      },
      "properties": {
         "title": "Café Casa Piccola"
      }
      },
                     
    {
      "type": "Feature",
      "geometry": {
        "type": "Point",
        "coordinates": [
          16.36103888888889, 48.2018
        ]
      },
      "properties": {
         "title": "Rahlstiege"
      }
      },
                     
    {
      "type": "Feature",
      "geometry": {
        "type": "Point",
        "coordinates": [
          16.371916, 48.212604
        ]
      },
      "properties": {
         "title": "Fischerstiege"
      }
      },
                     
    {
      "type": "Feature",
      "geometry": {
        "type": "Point",
        "coordinates": [
          16.374444444444, 48.211944444444
        ]
      },
      "properties": {
         "title": "Ruprechtskirche"
      }
      },
                     
    {
      "type": "Feature",
      "geometry": {
        "type": "Point",
        "coordinates": [
          16.345264113127, 48.222471880213
        ]
      },
      "properties": {
         "title": "Währingerstraße"
      }
      }
                  
  ]
}