{
  "type": "FeatureCollection",
  "features": [
    {
      "type": "Feature", 
      "geometry": {
        "type": "LineString", 
        "coordinates": [
            [16.24801, 48.08509], 
            [16.39467, 48.21699], 
            [16.378303, 48.208221], 
            [16.373056, 48.208333], 
            [16.366111, 48.208258]
          ]
      },
      "properties": {
        "name": "23. Mai 1895"
      }
    },
                     
    {
      "type": "Feature",
      "geometry": {
        "type": "Point",
        "coordinates": [
          16.373056, 48.208333
        ]
      },
      "properties": {
         "title": "Wien"
      }
      },
                     
    {
      "type": "Feature",
      "geometry": {
        "type": "Point",
        "coordinates": [
          16.39467, 48.21699
        ]
      },
      "properties": {
         "title": "Venedig in Wien"
      }
      },
                     
    {
      "type": "Feature",
      "geometry": {
        "type": "Point",
        "coordinates": [
          16.366111, 48.208258
        ]
      },
      "properties": {
         "title": "Café Griensteidl"
      }
      },
                     
    {
      "type": "Feature",
      "geometry": {
        "type": "Point",
        "coordinates": [
          16.378303, 48.208221
        ]
      },
      "properties": {
         "title": "Café Anna Schuckart"
      }
      },
                     
    {
      "type": "Feature",
      "geometry": {
        "type": "Point",
        "coordinates": [
          16.24801, 48.08509
        ]
      },
      "properties": {
         "title": "Brühl"
      }
      }
                  
  ]
}