{
  "type": "FeatureCollection",
  "features": [
    {
      "type": "Feature", 
      "geometry": {
        "type": "LineString", 
        "coordinates": [
            [15.59664, 48.01312], 
            [15.77414, 48.0339], 
            [15.97059, 48.0358], 
            [16.373056, 48.208333], 
            [16.02433, 48.17936]
          ]
      },
      "properties": {
        "name": "2. Juni 1895"
      }
    },
                     
    {
      "type": "Feature",
      "geometry": {
        "type": "Point",
        "coordinates": [
          16.373056, 48.208333
        ]
      },
      "properties": {
         "title": "Wien"
      }
      },
                     
    {
      "type": "Feature",
      "geometry": {
        "type": "Point",
        "coordinates": [
          16.02433, 48.17936
        ]
      },
      "properties": {
         "title": "Rekawinkel"
      }
      },
                     
    {
      "type": "Feature",
      "geometry": {
        "type": "Point",
        "coordinates": [
          15.77414, 48.0339
        ]
      },
      "properties": {
         "title": "Hainfeld"
      }
      },
                     
    {
      "type": "Feature",
      "geometry": {
        "type": "Point",
        "coordinates": [
          15.59664, 48.01312
        ]
      },
      "properties": {
         "title": "Lilienfeld"
      }
      },
                     
    {
      "type": "Feature",
      "geometry": {
        "type": "Point",
        "coordinates": [
          15.97059, 48.0358
        ]
      },
      "properties": {
         "title": "Altenmarkt an der Triesting"
      }
      }
                  
  ]
}