{
  "type": "FeatureCollection",
  "features": [
    {
      "type": "Feature", 
      "geometry": {
        "type": "LineString", 
        "coordinates": [
            [16.24801, 48.08509], 
            [16.261108, 48.081286], 
            [16.27, 48.0925], 
            [16.373056, 48.208333], 
            [16.357784, 48.205699]
          ]
      },
      "properties": {
        "name": "25. April 1896"
      }
    },
                     
    {
      "type": "Feature",
      "geometry": {
        "type": "Point",
        "coordinates": [
          16.373056, 48.208333
        ]
      },
      "properties": {
         "title": "Wien"
      }
      },
                     
    {
      "type": "Feature",
      "geometry": {
        "type": "Point",
        "coordinates": [
          16.27, 48.0925
        ]
      },
      "properties": {
         "title": "Burg Liechtenstein"
      }
      },
                     
    {
      "type": "Feature",
      "geometry": {
        "type": "Point",
        "coordinates": [
          16.261108, 48.081286
        ]
      },
      "properties": {
         "title": "Zum goldenen Stern"
      }
      },
                     
    {
      "type": "Feature",
      "geometry": {
        "type": "Point",
        "coordinates": [
          16.357784, 48.205699
        ]
      },
      "properties": {
         "title": "Volksgartenstraße 5"
      }
      },
                     
    {
      "type": "Feature",
      "geometry": {
        "type": "Point",
        "coordinates": [
          16.24801, 48.08509
        ]
      },
      "properties": {
         "title": "Brühl"
      }
      }
                  
  ]
}