{
  "type": "FeatureCollection",
  "features": [
    {
      "type": "Feature", 
      "geometry": {
        "type": "LineString", 
        "coordinates": [
            [10.727068, 59.91505], 
            [10.734349, 59.91352], 
            [10.74, 59.91305555555556], 
            [10.739572, 59.91373], 
            [10.74609, 59.91273], 
            [10.7393, 59.9177], 
            [10.667777777778, 59.963888888889]
          ]
      },
      "properties": {
        "name": "25. Juli 1896"
      }
    },
                     
    {
      "type": "Feature",
      "geometry": {
        "type": "Point",
        "coordinates": [
          10.74609, 59.91273
        ]
      },
      "properties": {
         "title": "Oslo"
      }
      },
                     
    {
      "type": "Feature",
      "geometry": {
        "type": "Point",
        "coordinates": [
          10.739572, 59.91373
        ]
      },
      "properties": {
         "title": "Grand Hotel [Oslo]"
      }
      },
                     
    {
      "type": "Feature",
      "geometry": {
        "type": "Point",
        "coordinates": [
          10.734349, 59.91352
        ]
      },
      "properties": {
         "title": "Tivoli [Oslo]"
      }
      },
                     
    {
      "type": "Feature",
      "geometry": {
        "type": "Point",
        "coordinates": [
          10.74, 59.91305555555556
        ]
      },
      "properties": {
         "title": "Stortinget"
      }
      },
                     
    {
      "type": "Feature",
      "geometry": {
        "type": "Point",
        "coordinates": [
          10.7393, 59.9177
        ]
      },
      "properties": {
         "title": "Oslo Kunstforening"
      }
      },
                     
    {
      "type": "Feature",
      "geometry": {
        "type": "Point",
        "coordinates": [
          10.727068, 59.91505
        ]
      },
      "properties": {
         "title": "[Wohnhaus von Henrik Ibsen]"
      }
      },
                     
    {
      "type": "Feature",
      "geometry": {
        "type": "Point",
        "coordinates": [
          10.667777777778, 59.963888888889
        ]
      },
      "properties": {
         "title": "Holmenkollbakken"
      }
      }
                  
  ]
}