{
  "type": "FeatureCollection",
  "features": [
    {
      "type": "Feature", 
      "geometry": {
        "type": "LineString", 
        "coordinates": [
            [16.277425, 48.14917], 
            [16.373056, 48.208333], 
            [16.374167, 48.213056], 
            [16.356285, 48.204516], 
            [16.358208, 48.214879]
          ]
      },
      "properties": {
        "name": "18. September 1897"
      }
    },
                     
    {
      "type": "Feature",
      "geometry": {
        "type": "Point",
        "coordinates": [
          16.373056, 48.208333
        ]
      },
      "properties": {
         "title": "Wien"
      }
      },
                     
    {
      "type": "Feature",
      "geometry": {
        "type": "Point",
        "coordinates": [
          16.358208, 48.214879
        ]
      },
      "properties": {
         "title": "Rooseveltplatz 2"
      }
      },
                     
    {
      "type": "Feature",
      "geometry": {
        "type": "Point",
        "coordinates": [
          16.374167, 48.213056
        ]
      },
      "properties": {
         "title": "Hotel Metropole [Wien]"
      }
      },
                     
    {
      "type": "Feature",
      "geometry": {
        "type": "Point",
        "coordinates": [
          16.356285, 48.204516
        ]
      },
      "properties": {
         "title": "Hotel Höller"
      }
      },
                     
    {
      "type": "Feature",
      "geometry": {
        "type": "Point",
        "coordinates": [
          16.277425, 48.14917
        ]
      },
      "properties": {
         "title": "Endresstraße 68"
      }
      }
                  
  ]
}