{
  "type": "FeatureCollection",
  "features": [
    {
      "type": "Feature", 
      "geometry": {
        "type": "LineString", 
        "coordinates": [
            [2.6172222222222, 48.408055555556], 
            [2.63333333, 48.43333333], 
            [2.6627169444444445, 48.40195694444444], 
            [2.7005555555556, 48.402222222222], 
            [2.70177, 48.40908], 
            [2.65444, 48.52722], 
            [2.3377777777778, 48.881944444444], 
            [2.340682, 48.876305], 
            [2.3488, 48.85341]
          ]
      },
      "properties": {
        "name": "18. Mai 1897"
      }
    },
                     
    {
      "type": "Feature",
      "geometry": {
        "type": "Point",
        "coordinates": [
          2.3488, 48.85341
        ]
      },
      "properties": {
         "title": "Paris"
      }
      },
                     
    {
      "type": "Feature",
      "geometry": {
        "type": "Point",
        "coordinates": [
          2.340682, 48.876305
        ]
      },
      "properties": {
         "title": "rue de Maubeuge"
      }
      },
                     
    {
      "type": "Feature",
      "geometry": {
        "type": "Point",
        "coordinates": [
          2.70177, 48.40908
        ]
      },
      "properties": {
         "title": "Fontainebleau"
      }
      },
                     
    {
      "type": "Feature",
      "geometry": {
        "type": "Point",
        "coordinates": [
          2.7005555555556, 48.402222222222
        ]
      },
      "properties": {
         "title": "château de Fontainebleau"
      }
      },
                     
    {
      "type": "Feature",
      "geometry": {
        "type": "Point",
        "coordinates": [
          2.6172222222222, 48.408055555556
        ]
      },
      "properties": {
         "title": "gorges de Franchard"
      }
      },
                     
    {
      "type": "Feature",
      "geometry": {
        "type": "Point",
        "coordinates": [
          2.6627169444444445, 48.40195694444444
        ]
      },
      "properties": {
         "title": "Wald von Fontainebleau"
      }
      },
                     
    {
      "type": "Feature",
      "geometry": {
        "type": "Point",
        "coordinates": [
          2.63333333, 48.43333333
        ]
      },
      "properties": {
         "title": "gorges d’Apremont"
      }
      },
                     
    {
      "type": "Feature",
      "geometry": {
        "type": "Point",
        "coordinates": [
          2.65444, 48.52722
        ]
      },
      "properties": {
         "title": "Gare de Melun"
      }
      },
                     
    {
      "type": "Feature",
      "geometry": {
        "type": "Point",
        "coordinates": [
          2.3377777777778, 48.881944444444
        ]
      },
      "properties": {
         "title": "Café de la Nouvelle Athènes"
      }
      }
                  
  ]
}