{
  "type": "FeatureCollection",
  "features": [
    {
      "type": "Feature", 
      "geometry": {
        "type": "LineString", 
        "coordinates": [
            [2.337222, 48.846944], 
            [2.34646, 48.84673], 
            [2.3488, 48.85341], 
            [2.3488888888889, 48.870833333333], 
            [2.340682, 48.876305]
          ]
      },
      "properties": {
        "name": "17. April 1897"
      }
    },
                     
    {
      "type": "Feature",
      "geometry": {
        "type": "Point",
        "coordinates": [
          2.3488, 48.85341
        ]
      },
      "properties": {
         "title": "Paris"
      }
      },
                     
    {
      "type": "Feature",
      "geometry": {
        "type": "Point",
        "coordinates": [
          2.340682, 48.876305
        ]
      },
      "properties": {
         "title": "rue de Maubeuge"
      }
      },
                     
    {
      "type": "Feature",
      "geometry": {
        "type": "Point",
        "coordinates": [
          2.34646, 48.84673
        ]
      },
      "properties": {
         "title": "Panthéon"
      }
      },
                     
    {
      "type": "Feature",
      "geometry": {
        "type": "Point",
        "coordinates": [
          2.3488888888889, 48.870833333333
        ]
      },
      "properties": {
         "title": "Théâtre du Gymnase Marie Bell"
      }
      },
                     
    {
      "type": "Feature",
      "geometry": {
        "type": "Point",
        "coordinates": [
          2.337222, 48.846944
        ]
      },
      "properties": {
         "title": "Jardin du Luxembourg"
      }
      }
                  
  ]
}