{
  "type": "FeatureCollection",
  "features": [
    {
      "type": "Feature", 
      "geometry": {
        "type": "LineString", 
        "coordinates": [
            [15.45, 47.5], 
            [15.31667, 47.26667], 
            [15.43333, 47.06667], 
            [15.8241, 47.64224], 
            [16.37341, 48.2066], 
            [15.56248, 47.54728]
          ]
      },
      "properties": {
        "name": "11. Juli 1898"
      }
    },
                     
    {
      "type": "Feature",
      "geometry": {
        "type": "Point",
        "coordinates": [
          16.37341, 48.2066
        ]
      },
      "properties": {
         "title": "Wien"
      }
      },
                     
    {
      "type": "Feature",
      "geometry": {
        "type": "Point",
        "coordinates": [
          15.8241, 47.64224
        ]
      },
      "properties": {
         "title": "Semmering"
      }
      },
                     
    {
      "type": "Feature",
      "geometry": {
        "type": "Point",
        "coordinates": [
          15.56248, 47.54728
        ]
      },
      "properties": {
         "title": "Krieglach"
      }
      },
                     
    {
      "type": "Feature",
      "geometry": {
        "type": "Point",
        "coordinates": [
          15.45, 47.5
        ]
      },
      "properties": {
         "title": "Kindberg"
      }
      },
                     
    {
      "type": "Feature",
      "geometry": {
        "type": "Point",
        "coordinates": [
          15.31667, 47.26667
        ]
      },
      "properties": {
         "title": "Frohnleiten"
      }
      },
                     
    {
      "type": "Feature",
      "geometry": {
        "type": "Point",
        "coordinates": [
          15.43333, 47.06667
        ]
      },
      "properties": {
         "title": "Graz"
      }
      }
                  
  ]
}