{
  "type": "FeatureCollection",
  "features": [
    {
      "type": "Feature", 
      "geometry": {
        "type": "LineString", 
        "coordinates": [
            [16.26269, 48.24616], 
            [16.35736, 48.21533], 
            [16.3633523, 48.211807], 
            [16.373056, 48.208333], 
            [16.32522, 48.30521], 
            [16.14492, 48.30198]
          ]
      },
      "properties": {
        "name": "25. März 1898"
      }
    },
                     
    {
      "type": "Feature",
      "geometry": {
        "type": "Point",
        "coordinates": [
          16.373056, 48.208333
        ]
      },
      "properties": {
         "title": "Wien"
      }
      },
                     
    {
      "type": "Feature",
      "geometry": {
        "type": "Point",
        "coordinates": [
          16.26269, 48.24616
        ]
      },
      "properties": {
         "title": "Rohrerhütte"
      }
      },
                     
    {
      "type": "Feature",
      "geometry": {
        "type": "Point",
        "coordinates": [
          16.3633523, 48.211807
        ]
      },
      "properties": {
         "title": "Residenzhotel"
      }
      },
                     
    {
      "type": "Feature",
      "geometry": {
        "type": "Point",
        "coordinates": [
          16.35736, 48.21533
        ]
      },
      "properties": {
         "title": "Frankgasse 1"
      }
      },
                     
    {
      "type": "Feature",
      "geometry": {
        "type": "Point",
        "coordinates": [
          16.14492, 48.30198
        ]
      },
      "properties": {
         "title": "Königstetten"
      }
      },
                     
    {
      "type": "Feature",
      "geometry": {
        "type": "Point",
        "coordinates": [
          16.32522, 48.30521
        ]
      },
      "properties": {
         "title": "Klosterneuburg"
      }
      }
                  
  ]
}