{
  "type": "FeatureCollection",
  "features": [
    {
      "type": "Feature", 
      "geometry": {
        "type": "LineString", 
        "coordinates": [
            [16.373056, 48.208333], 
            [16.369532, 48.204466], 
            [16.41575606941028, 48.20508551408161], 
            [16.401694, 48.213944], 
            [16.3855, 48.21682]
          ]
      },
      "properties": {
        "name": "20. September 1900"
      }
    },
                     
    {
      "type": "Feature",
      "geometry": {
        "type": "Point",
        "coordinates": [
          16.373056, 48.208333
        ]
      },
      "properties": {
         "title": "Wien"
      }
      },
                     
    {
      "type": "Feature",
      "geometry": {
        "type": "Point",
        "coordinates": [
          16.41575606941028, 48.20508551408161
        ]
      },
      "properties": {
         "title": "Hauptallee"
      }
      },
                     
    {
      "type": "Feature",
      "geometry": {
        "type": "Point",
        "coordinates": [
          16.369532, 48.204466
        ]
      },
      "properties": {
         "title": "Maysedergasse 6"
      }
      },
                     
    {
      "type": "Feature",
      "geometry": {
        "type": "Point",
        "coordinates": [
          16.401694, 48.213944
        ]
      },
      "properties": {
         "title": "Schweizerhaus"
      }
      },
                     
    {
      "type": "Feature",
      "geometry": {
        "type": "Point",
        "coordinates": [
          16.3855, 48.21682
        ]
      },
      "properties": {
         "title": "Rotensterngasse 31"
      }
      }
                  
  ]
}