{
  "type": "FeatureCollection",
  "features": [
    {
      "type": "Feature", 
      "geometry": {
        "type": "LineString", 
        "coordinates": [
            [11.37706, 47.28433], 
            [12.69333, 47.58475], 
            [13.2, 47.35], 
            [13.04532, 47.80067], 
            [13.043401, 47.802045], 
            [12.882423, 47.730685]
          ]
      },
      "properties": {
        "name": "1. Juli 1902"
      }
    },
                     
    {
      "type": "Feature",
      "geometry": {
        "type": "Point",
        "coordinates": [
          13.04532, 47.80067
        ]
      },
      "properties": {
         "title": "Salzburg"
      }
      },
                     
    {
      "type": "Feature",
      "geometry": {
        "type": "Point",
        "coordinates": [
          13.043401, 47.802045
        ]
      },
      "properties": {
         "title": "Ã–sterreichischer Hof"
      }
      },
                     
    {
      "type": "Feature",
      "geometry": {
        "type": "Point",
        "coordinates": [
          11.37706, 47.28433
        ]
      },
      "properties": {
         "title": "Innsbruck"
      }
      },
                     
    {
      "type": "Feature",
      "geometry": {
        "type": "Point",
        "coordinates": [
          12.882423, 47.730685
        ]
      },
      "properties": {
         "title": "Bad Reichenhall"
      }
      },
                     
    {
      "type": "Feature",
      "geometry": {
        "type": "Point",
        "coordinates": [
          12.69333, 47.58475
        ]
      },
      "properties": {
         "title": "Lofer"
      }
      },
                     
    {
      "type": "Feature",
      "geometry": {
        "type": "Point",
        "coordinates": [
          13.2, 47.35
        ]
      },
      "properties": {
         "title": "St. Johann im Pongau"
      }
      }
                  
  ]
}