{
  "type": "FeatureCollection",
  "features": [
    {
      "type": "Feature", 
      "geometry": {
        "type": "LineString", 
        "coordinates": [
            [16.257741, 48.139276], 
            [16.255556, 48.133611], 
            [16.24924, 48.08736], 
            [16.373056, 48.208333], 
            [16.37084, 48.210333]
          ]
      },
      "properties": {
        "name": "17. Juni 1902"
      }
    },
                     
    {
      "type": "Feature",
      "geometry": {
        "type": "Point",
        "coordinates": [
          16.373056, 48.208333
        ]
      },
      "properties": {
         "title": "Wien"
      }
      },
                     
    {
      "type": "Feature",
      "geometry": {
        "type": "Point",
        "coordinates": [
          16.24924, 48.08736
        ]
      },
      "properties": {
         "title": "Hauptstraße 56"
      }
      },
                     
    {
      "type": "Feature",
      "geometry": {
        "type": "Point",
        "coordinates": [
          16.37084, 48.210333
        ]
      },
      "properties": {
         "title": "Konservatorium der Gesellschaft der Musikfreunde"
      }
      },
                     
    {
      "type": "Feature",
      "geometry": {
        "type": "Point",
        "coordinates": [
          16.255556, 48.133611
        ]
      },
      "properties": {
         "title": "Hofmannsthal-Schlössl"
      }
      },
                     
    {
      "type": "Feature",
      "geometry": {
        "type": "Point",
        "coordinates": [
          16.257741, 48.139276
        ]
      },
      "properties": {
         "title": "Willergasse 2"
      }
      }
                  
  ]
}