{
  "type": "FeatureCollection",
  "features": [
    {
      "type": "Feature", 
      "geometry": {
        "type": "LineString", 
        "coordinates": [
            [16.373056, 48.208333], 
            [16.365195, 48.21575], 
            [16.33472, 48.2304], 
            [16.314491, 48.242571], 
            [16.26269, 48.24616]
          ]
      },
      "properties": {
        "name": "12. August 1904"
      }
    },
                     
    {
      "type": "Feature",
      "geometry": {
        "type": "Point",
        "coordinates": [
          16.373056, 48.208333
        ]
      },
      "properties": {
         "title": "Wien"
      }
      },
                     
    {
      "type": "Feature",
      "geometry": {
        "type": "Point",
        "coordinates": [
          16.26269, 48.24616
        ]
      },
      "properties": {
         "title": "Rohrerhütte"
      }
      },
                     
    {
      "type": "Feature",
      "geometry": {
        "type": "Point",
        "coordinates": [
          16.365195, 48.21575
        ]
      },
      "properties": {
         "title": "Wipplingerstraße 38"
      }
      },
                     
    {
      "type": "Feature",
      "geometry": {
        "type": "Point",
        "coordinates": [
          16.33472, 48.2304
        ]
      },
      "properties": {
         "title": "Edmund-Weiß-Gasse 7"
      }
      },
                     
    {
      "type": "Feature",
      "geometry": {
        "type": "Point",
        "coordinates": [
          16.314491, 48.242571
        ]
      },
      "properties": {
         "title": "Starkfriedgasse 12"
      }
      }
                  
  ]
}