{
  "type": "FeatureCollection",
  "features": [
    {
      "type": "Feature", 
      "geometry": {
        "type": "LineString", 
        "coordinates": [
            [13.045555555556, 47.796666666667], 
            [13.059584, 47.78663], 
            [13.054731, 47.796803], 
            [13.045141, 47.808997], 
            [13.042019, 47.805528], 
            [13.045, 47.799167]
          ]
      },
      "properties": {
        "name": "19. September 1904"
      }
    },
                     
    {
      "type": "Feature",
      "geometry": {
        "type": "Point",
        "coordinates": [
          13.045141, 47.808997
        ]
      },
      "properties": {
         "title": "Hotel und Pension Nelböck"
      }
      },
                     
    {
      "type": "Feature",
      "geometry": {
        "type": "Point",
        "coordinates": [
          13.042019, 47.805528
        ]
      },
      "properties": {
         "title": "Mirabell"
      }
      },
                     
    {
      "type": "Feature",
      "geometry": {
        "type": "Point",
        "coordinates": [
          13.045, 47.799167
        ]
      },
      "properties": {
         "title": "Café Tomaselli"
      }
      },
                     
    {
      "type": "Feature",
      "geometry": {
        "type": "Point",
        "coordinates": [
          13.045555555556, 47.796666666667
        ]
      },
      "properties": {
         "title": "Petersfriedhof"
      }
      },
                     
    {
      "type": "Feature",
      "geometry": {
        "type": "Point",
        "coordinates": [
          13.054731, 47.796803
        ]
      },
      "properties": {
         "title": "Künstlerhaus [Salzburg]"
      }
      },
                     
    {
      "type": "Feature",
      "geometry": {
        "type": "Point",
        "coordinates": [
          13.059584, 47.78663
        ]
      },
      "properties": {
         "title": "Botanischer Garten der Universität Salzburg"
      }
      }
                  
  ]
}