{
  "type": "FeatureCollection",
  "features": [
    {
      "type": "Feature", 
      "geometry": {
        "type": "LineString", 
        "coordinates": [
            [16.35736, 48.21533], 
            [16.373056, 48.208333], 
            [16.370342, 48.211369], 
            [16.331527, 48.23428], 
            [16.33472, 48.2304]
          ]
      },
      "properties": {
        "name": "30. Mai 1905"
      }
    },
                     
    {
      "type": "Feature",
      "geometry": {
        "type": "Point",
        "coordinates": [
          16.373056, 48.208333
        ]
      },
      "properties": {
         "title": "Wien"
      }
      },
                     
    {
      "type": "Feature",
      "geometry": {
        "type": "Point",
        "coordinates": [
          16.331527, 48.23428
        ]
      },
      "properties": {
         "title": "Restauration Türkenschanz-Park"
      }
      },
                     
    {
      "type": "Feature",
      "geometry": {
        "type": "Point",
        "coordinates": [
          16.35736, 48.21533
        ]
      },
      "properties": {
         "title": "Frankgasse 1"
      }
      },
                     
    {
      "type": "Feature",
      "geometry": {
        "type": "Point",
        "coordinates": [
          16.370342, 48.211369
        ]
      },
      "properties": {
         "title": "Jordangasse 9"
      }
      },
                     
    {
      "type": "Feature",
      "geometry": {
        "type": "Point",
        "coordinates": [
          16.33472, 48.2304
        ]
      },
      "properties": {
         "title": "Edmund-Weiß-Gasse 7"
      }
      }
                  
  ]
}