{
  "type": "FeatureCollection",
  "features": [
    {
      "type": "Feature", 
      "geometry": {
        "type": "LineString", 
        "coordinates": [
            [16.3566, 48.205142], 
            [16.373056, 48.208333], 
            [16.361942, 48.212903], 
            [16.368738, 48.213038], 
            [16.33472, 48.2304]
          ]
      },
      "properties": {
        "name": "27. Juni 1905"
      }
    },
                     
    {
      "type": "Feature",
      "geometry": {
        "type": "Point",
        "coordinates": [
          16.373056, 48.208333
        ]
      },
      "properties": {
         "title": "Wien"
      }
      },
                     
    {
      "type": "Feature",
      "geometry": {
        "type": "Point",
        "coordinates": [
          16.3566, 48.205142
        ]
      },
      "properties": {
         "title": "Volkstheater"
      }
      },
                     
    {
      "type": "Feature",
      "geometry": {
        "type": "Point",
        "coordinates": [
          16.368738, 48.213038
        ]
      },
      "properties": {
         "title": "Tiefer Graben 23"
      }
      },
                     
    {
      "type": "Feature",
      "geometry": {
        "type": "Point",
        "coordinates": [
          16.361942, 48.212903
        ]
      },
      "properties": {
         "title": "Universitätsring 10"
      }
      },
                     
    {
      "type": "Feature",
      "geometry": {
        "type": "Point",
        "coordinates": [
          16.33472, 48.2304
        ]
      },
      "properties": {
         "title": "Edmund-Weiß-Gasse 7"
      }
      }
                  
  ]
}