{
  "type": "FeatureCollection",
  "features": [
    {
      "type": "Feature", 
      "geometry": {
        "type": "LineString", 
        "coordinates": [
            [14.131, 48.0556], 
            [16.258056, 48.201667], 
            [16.37341, 48.2066], 
            [16.362528, 48.218167], 
            [16.2387111, 48.239965], 
            [16.2911, 48.2553]
          ]
      },
      "properties": {
        "name": "23. November 1913"
      }
    },
                     
    {
      "type": "Feature",
      "geometry": {
        "type": "Point",
        "coordinates": [
          16.37341, 48.2066
        ]
      },
      "properties": {
         "title": "Wien"
      }
      },
                     
    {
      "type": "Feature",
      "geometry": {
        "type": "Point",
        "coordinates": [
          14.131, 48.0556
        ]
      },
      "properties": {
         "title": "Stiftsgymnasium Kremsmünster"
      }
      },
                     
    {
      "type": "Feature",
      "geometry": {
        "type": "Point",
        "coordinates": [
          16.362528, 48.218167
        ]
      },
      "properties": {
         "title": "Handelsmuseum"
      }
      },
                     
    {
      "type": "Feature",
      "geometry": {
        "type": "Point",
        "coordinates": [
          16.2387111, 48.239965
        ]
      },
      "properties": {
         "title": "Rieglerhütte"
      }
      },
                     
    {
      "type": "Feature",
      "geometry": {
        "type": "Point",
        "coordinates": [
          16.2911, 48.2553
        ]
      },
      "properties": {
         "title": "Salmannsdorf"
      }
      },
                     
    {
      "type": "Feature",
      "geometry": {
        "type": "Point",
        "coordinates": [
          16.258056, 48.201667
        ]
      },
      "properties": {
         "title": "Hütteldorf"
      }
      }
                  
  ]
}