{
  "type": "FeatureCollection",
  "features": [
    {
      "type": "Feature", 
      "geometry": {
        "type": "LineString", 
        "coordinates": [
            [13.034139, 47.794417], 
            [16.3691, 48.203], 
            [16.37341, 48.2066], 
            [16.258056, 48.201667], 
            [16.2387111, 48.239965]
          ]
      },
      "properties": {
        "name": "21. September 1913"
      }
    },
                     
    {
      "type": "Feature",
      "geometry": {
        "type": "Point",
        "coordinates": [
          16.37341, 48.2066
        ]
      },
      "properties": {
         "title": "Wien"
      }
      },
                     
    {
      "type": "Feature",
      "geometry": {
        "type": "Point",
        "coordinates": [
          16.3691, 48.203
        ]
      },
      "properties": {
         "title": "Oper"
      }
      },
                     
    {
      "type": "Feature",
      "geometry": {
        "type": "Point",
        "coordinates": [
          13.034139, 47.794417
        ]
      },
      "properties": {
         "title": "Akademisches Gymnasium Salzburg"
      }
      },
                     
    {
      "type": "Feature",
      "geometry": {
        "type": "Point",
        "coordinates": [
          16.2387111, 48.239965
        ]
      },
      "properties": {
         "title": "Rieglerhütte"
      }
      },
                     
    {
      "type": "Feature",
      "geometry": {
        "type": "Point",
        "coordinates": [
          16.258056, 48.201667
        ]
      },
      "properties": {
         "title": "Hütteldorf"
      }
      }
                  
  ]
}