{
  "type": "FeatureCollection",
  "features": [
    {
      "type": "Feature", 
      "geometry": {
        "type": "LineString", 
        "coordinates": [
            [15.02998, 47.8612], 
            [14.98333, 47.65], 
            [15.31639, 47.77306], 
            [15.16667, 47.66667], 
            [16.37341, 48.2066], 
            [16.33787, 48.19653]
          ]
      },
      "properties": {
        "name": "15. Juli 1914"
      }
    },
                     
    {
      "type": "Feature",
      "geometry": {
        "type": "Point",
        "coordinates": [
          15.02998, 47.8612
        ]
      },
      "properties": {
         "title": "Lunz am See"
      }
      },
                     
    {
      "type": "Feature",
      "geometry": {
        "type": "Point",
        "coordinates": [
          16.37341, 48.2066
        ]
      },
      "properties": {
         "title": "Wien"
      }
      },
                     
    {
      "type": "Feature",
      "geometry": {
        "type": "Point",
        "coordinates": [
          14.98333, 47.65
        ]
      },
      "properties": {
         "title": "Wildalpen"
      }
      },
                     
    {
      "type": "Feature",
      "geometry": {
        "type": "Point",
        "coordinates": [
          15.16667, 47.66667
        ]
      },
      "properties": {
         "title": "Weichselboden"
      }
      },
                     
    {
      "type": "Feature",
      "geometry": {
        "type": "Point",
        "coordinates": [
          15.31639, 47.77306
        ]
      },
      "properties": {
         "title": "Mariazell"
      }
      },
                     
    {
      "type": "Feature",
      "geometry": {
        "type": "Point",
        "coordinates": [
          16.33787, 48.19653
        ]
      },
      "properties": {
         "title": "Westbahnhof-Restaurant"
      }
      }
                  
  ]
}