{
  "type": "FeatureCollection",
  "features": [
    {
      "type": "Feature", 
      "geometry": {
        "type": "LineString", 
        "coordinates": [
            [16.258056, 48.201667], 
            [16.243324956494, 48.217820644817], 
            [16.37341, 48.2066], 
            [16.361139, 48.210333], 
            [13.82081, 51.06452], 
            [-8, 53]
          ]
      },
      "properties": {
        "name": "3. März 1918"
      }
    },
                     
    {
      "type": "Feature",
      "geometry": {
        "type": "Point",
        "coordinates": [
          16.37341, 48.2066
        ]
      },
      "properties": {
         "title": "Wien"
      }
      },
                     
    {
      "type": "Feature",
      "geometry": {
        "type": "Point",
        "coordinates": [
          16.361139, 48.210333
        ]
      },
      "properties": {
         "title": "Burgtheater"
      }
      },
                     
    {
      "type": "Feature",
      "geometry": {
        "type": "Point",
        "coordinates": [
          -8.0, 53.0
        ]
      },
      "properties": {
         "title": "Irland"
      }
      },
                     
    {
      "type": "Feature",
      "geometry": {
        "type": "Point",
        "coordinates": [
          13.82081, 51.06452
        ]
      },
      "properties": {
         "title": "Physiatrisches Sanatorium (Lahmann)"
      }
      },
                     
    {
      "type": "Feature",
      "geometry": {
        "type": "Point",
        "coordinates": [
          16.243324956494, 48.217820644817
        ]
      },
      "properties": {
         "title": "Knödelhütte"
      }
      },
                     
    {
      "type": "Feature",
      "geometry": {
        "type": "Point",
        "coordinates": [
          16.258056, 48.201667
        ]
      },
      "properties": {
         "title": "Hütteldorf"
      }
      }
                  
  ]
}