{
  "type": "FeatureCollection",
  "features": [
    {
      "type": "Feature", 
      "geometry": {
        "type": "LineString", 
        "coordinates": [
            [16.276509500872, 48.241960480337], 
            [16.373056, 48.208333], 
            [16.293147561818, 48.251927827778], 
            [16.2911, 48.2553], 
            [16.24526, 48.24987], 
            [16.23036, 48.246719]
          ]
      },
      "properties": {
        "name": "6. April 1919"
      }
    },
                     
    {
      "type": "Feature",
      "geometry": {
        "type": "Point",
        "coordinates": [
          16.373056, 48.208333
        ]
      },
      "properties": {
         "title": "Wien"
      }
      },
                     
    {
      "type": "Feature",
      "geometry": {
        "type": "Point",
        "coordinates": [
          16.24526, 48.24987
        ]
      },
      "properties": {
         "title": "Rotes Kreuz"
      }
      },
                     
    {
      "type": "Feature",
      "geometry": {
        "type": "Point",
        "coordinates": [
          16.276509500872, 48.241960480337
        ]
      },
      "properties": {
         "title": "Schwarzenbergpark"
      }
      },
                     
    {
      "type": "Feature",
      "geometry": {
        "type": "Point",
        "coordinates": [
          16.2911, 48.2553
        ]
      },
      "properties": {
         "title": "Salmannsdorf"
      }
      },
                     
    {
      "type": "Feature",
      "geometry": {
        "type": "Point",
        "coordinates": [
          16.293147561818, 48.251927827778
        ]
      },
      "properties": {
         "title": "Hameau"
      }
      },
                     
    {
      "type": "Feature",
      "geometry": {
        "type": "Point",
        "coordinates": [
          16.23036, 48.246719
        ]
      },
      "properties": {
         "title": "Sophienalpe"
      }
      }
                  
  ]
}