{
  "type": "FeatureCollection",
  "features": [
    {
      "type": "Feature", 
      "geometry": {
        "type": "LineString", 
        "coordinates": [
            [14.11361, 46.36917], 
            [16.354289637856, 48.185364845603], 
            [16.37341, 48.2066], 
            [16.2911, 48.2553], 
            [16.276509500872, 48.241960480337], 
            [16.24526, 48.24987]
          ]
      },
      "properties": {
        "name": "6. April 1919"
      }
    },
                     
    {
      "type": "Feature",
      "geometry": {
        "type": "Point",
        "coordinates": [
          16.37341, 48.2066
        ]
      },
      "properties": {
         "title": "Wien"
      }
      },
                     
    {
      "type": "Feature",
      "geometry": {
        "type": "Point",
        "coordinates": [
          16.24526, 48.24987
        ]
      },
      "properties": {
         "title": "Rotes Kreuz"
      }
      },
                     
    {
      "type": "Feature",
      "geometry": {
        "type": "Point",
        "coordinates": [
          16.276509500872, 48.241960480337
        ]
      },
      "properties": {
         "title": "Schwarzenbergpark"
      }
      },
                     
    {
      "type": "Feature",
      "geometry": {
        "type": "Point",
        "coordinates": [
          14.11361, 46.36917
        ]
      },
      "properties": {
         "title": "Bled"
      }
      },
                     
    {
      "type": "Feature",
      "geometry": {
        "type": "Point",
        "coordinates": [
          16.354289637856, 48.185364845603
        ]
      },
      "properties": {
         "title": "Siebenbrunnengasse"
      }
      },
                     
    {
      "type": "Feature",
      "geometry": {
        "type": "Point",
        "coordinates": [
          16.2911, 48.2553
        ]
      },
      "properties": {
         "title": "Salmannsdorf"
      }
      }
                  
  ]
}