{
  "type": "FeatureCollection",
  "features": [
    {
      "type": "Feature", 
      "geometry": {
        "type": "LineString", 
        "coordinates": [
            [16.37341, 48.2066], 
            [16.31268, 48.2629], 
            [16.292995185249, 48.266268052681], 
            [16.28606, 48.25849], 
            [16.2911, 48.2553]
          ]
      },
      "properties": {
        "name": "25. Juli 1920"
      }
    },
                     
    {
      "type": "Feature",
      "geometry": {
        "type": "Point",
        "coordinates": [
          16.37341, 48.2066
        ]
      },
      "properties": {
         "title": "Wien"
      }
      },
                     
    {
      "type": "Feature",
      "geometry": {
        "type": "Point",
        "coordinates": [
          16.292995185249, 48.266268052681
        ]
      },
      "properties": {
         "title": "Rohrerwiese"
      }
      },
                     
    {
      "type": "Feature",
      "geometry": {
        "type": "Point",
        "coordinates": [
          16.28606, 48.25849
        ]
      },
      "properties": {
         "title": "Dreimarkstein [Wien]"
      }
      },
                     
    {
      "type": "Feature",
      "geometry": {
        "type": "Point",
        "coordinates": [
          16.31268, 48.2629
        ]
      },
      "properties": {
         "title": "Am Himmel"
      }
      },
                     
    {
      "type": "Feature",
      "geometry": {
        "type": "Point",
        "coordinates": [
          16.2911, 48.2553
        ]
      },
      "properties": {
         "title": "Salmannsdorf"
      }
      }
                  
  ]
}