{
  "type": "FeatureCollection",
  "features": [
    {
      "type": "Feature", 
      "geometry": {
        "type": "LineString", 
        "coordinates": [
            [13.042019, 47.805528], 
            [13.043401, 47.802045], 
            [13.043904, 47.801903], 
            [13.04532, 47.80067], 
            [12.9291, 48.2081]
          ]
      },
      "properties": {
        "name": "4. Juli 1924"
      }
    },
                     
    {
      "type": "Feature",
      "geometry": {
        "type": "Point",
        "coordinates": [
          13.043401, 47.802045
        ]
      },
      "properties": {
         "title": "Österreichischer Hof"
      }
      },
                     
    {
      "type": "Feature",
      "geometry": {
        "type": "Point",
        "coordinates": [
          13.04532, 47.80067
        ]
      },
      "properties": {
         "title": "Salzburg"
      }
      },
                     
    {
      "type": "Feature",
      "geometry": {
        "type": "Point",
        "coordinates": [
          13.042019, 47.805528
        ]
      },
      "properties": {
         "title": "Mirabell"
      }
      },
                     
    {
      "type": "Feature",
      "geometry": {
        "type": "Point",
        "coordinates": [
          13.043904, 47.801903
        ]
      },
      "properties": {
         "title": "Café Bazar"
      }
      },
                     
    {
      "type": "Feature",
      "geometry": {
        "type": "Point",
        "coordinates": [
          12.9291, 48.2081
        ]
      },
      "properties": {
         "title": "Salzach"
      }
      }
                  
  ]
}