{
  "type": "FeatureCollection",
  "features": [
    {
      "type": "Feature", 
      "geometry": {
        "type": "LineString", 
        "coordinates": [
            [16.373056, 48.208333], 
            [16.32522, 48.30521], 
            [16.25942, 48.33685], 
            [16.27616, 48.30997], 
            [16.209444, 48.327778]
          ]
      },
      "properties": {
        "name": "28. Mai 1928"
      }
    },
                     
    {
      "type": "Feature",
      "geometry": {
        "type": "Point",
        "coordinates": [
          16.373056, 48.208333
        ]
      },
      "properties": {
         "title": "Wien"
      }
      },
                     
    {
      "type": "Feature",
      "geometry": {
        "type": "Point",
        "coordinates": [
          16.32522, 48.30521
        ]
      },
      "properties": {
         "title": "Klosterneuburg"
      }
      },
                     
    {
      "type": "Feature",
      "geometry": {
        "type": "Point",
        "coordinates": [
          16.209444, 48.327778
        ]
      },
      "properties": {
         "title": "St. Andrä-Wördern"
      }
      },
                     
    {
      "type": "Feature",
      "geometry": {
        "type": "Point",
        "coordinates": [
          16.25942, 48.33685
        ]
      },
      "properties": {
         "title": "Hadersfeld"
      }
      },
                     
    {
      "type": "Feature",
      "geometry": {
        "type": "Point",
        "coordinates": [
          16.27616, 48.30997
        ]
      },
      "properties": {
         "title": "Kierling"
      }
      }
                  
  ]
}