{
  "type": "FeatureCollection",
  "features": [
    {
      "type": "Feature", 
      "geometry": {
        "type": "LineString", 
        "coordinates": [
            [16.17359, 48.15486], 
            [16.11437, 48.13047], 
            [16.245159724901, 48.142780596146], 
            [16.37341, 48.2066], 
            [16.21667, 48.18333]
          ]
      },
      "properties": {
        "name": "2. Juni 1929"
      }
    },
                     
    {
      "type": "Feature",
      "geometry": {
        "type": "Point",
        "coordinates": [
          16.37341, 48.2066
        ]
      },
      "properties": {
         "title": "Wien"
      }
      },
                     
    {
      "type": "Feature",
      "geometry": {
        "type": "Point",
        "coordinates": [
          16.11437, 48.13047
        ]
      },
      "properties": {
         "title": "Hochroterd"
      }
      },
                     
    {
      "type": "Feature",
      "geometry": {
        "type": "Point",
        "coordinates": [
          16.21667, 48.18333
        ]
      },
      "properties": {
         "title": "Lainzer Tiergarten"
      }
      },
                     
    {
      "type": "Feature",
      "geometry": {
        "type": "Point",
        "coordinates": [
          16.245159724901, 48.142780596146
        ]
      },
      "properties": {
         "title": "Kalksburg"
      }
      },
                     
    {
      "type": "Feature",
      "geometry": {
        "type": "Point",
        "coordinates": [
          16.17359, 48.15486
        ]
      },
      "properties": {
         "title": "Laab im Walde"
      }
      }
                  
  ]
}