{
  "type": "FeatureCollection",
  "features": [
    {
      "type": "Feature", 
      "geometry": {
        "type": "LineString", 
        "coordinates": [
            [16.28610371233, 48.233119188484], 
            [16.37341, 48.2066], 
            [16.30627, 48.2435], 
            [16.2911, 48.2553], 
            [16.300034240016, 48.246838181084]
          ]
      },
      "properties": {
        "name": "20. Juni 1930"
      }
    },
                     
    {
      "type": "Feature",
      "geometry": {
        "type": "Point",
        "coordinates": [
          16.37341, 48.2066
        ]
      },
      "properties": {
         "title": "Wien"
      }
      },
                     
    {
      "type": "Feature",
      "geometry": {
        "type": "Point",
        "coordinates": [
          16.28610371233, 48.233119188484
        ]
      },
      "properties": {
         "title": "Neuwaldegg"
      }
      },
                     
    {
      "type": "Feature",
      "geometry": {
        "type": "Point",
        "coordinates": [
          16.300034240016, 48.246838181084
        ]
      },
      "properties": {
         "title": "Pötzleinsdorf"
      }
      },
                     
    {
      "type": "Feature",
      "geometry": {
        "type": "Point",
        "coordinates": [
          16.2911, 48.2553
        ]
      },
      "properties": {
         "title": "Salmannsdorf"
      }
      },
                     
    {
      "type": "Feature",
      "geometry": {
        "type": "Point",
        "coordinates": [
          16.30627, 48.2435
        ]
      },
      "properties": {
         "title": "Zum weißen Lamm"
      }
      }
                  
  ]
}