{
  "type": "FeatureCollection",
  "features": [
    {
      "type": "Feature", 
      "geometry": {
        "type": "LineString", 
        "coordinates": [
            [16.361139, 48.210333], 
            [16.37341, 48.2066], 
            [16.3747466, 48.2104057], 
            [16.37997, 48.21366], 
            [16.3576, 48.21071]
          ]
      },
      "properties": {
        "name": "31. Oktober 1930"
      }
    },
                     
    {
      "type": "Feature",
      "geometry": {
        "type": "Point",
        "coordinates": [
          16.37341, 48.2066
        ]
      },
      "properties": {
         "title": "Wien"
      }
      },
                     
    {
      "type": "Feature",
      "geometry": {
        "type": "Point",
        "coordinates": [
          16.361139, 48.210333
        ]
      },
      "properties": {
         "title": "Burgtheater"
      }
      },
                     
    {
      "type": "Feature",
      "geometry": {
        "type": "Point",
        "coordinates": [
          16.3747466, 48.2104057
        ]
      },
      "properties": {
         "title": "Zur Linde"
      }
      },
                     
    {
      "type": "Feature",
      "geometry": {
        "type": "Point",
        "coordinates": [
          16.3576, 48.21071
        ]
      },
      "properties": {
         "title": "Rathaus"
      }
      },
                     
    {
      "type": "Feature",
      "geometry": {
        "type": "Point",
        "coordinates": [
          16.37997, 48.21366
        ]
      },
      "properties": {
         "title": "Zentralkino"
      }
      }
                  
  ]
}