{
  "type": "FeatureCollection",
  "features": [
    {
      "type": "Feature", 
      "geometry": {
        "type": "LineString", 
        "coordinates": [
            [14.03333, 48.15], 
            [16.16265, 48.19512], 
            [16.37341, 48.2066], 
            [16.33679, 48.22806], 
            [16.09456, 48.25022]
          ]
      },
      "properties": {
        "name": "21. April 1930"
      }
    },
                     
    {
      "type": "Feature",
      "geometry": {
        "type": "Point",
        "coordinates": [
          16.37341, 48.2066
        ]
      },
      "properties": {
         "title": "Wien"
      }
      },
                     
    {
      "type": "Feature",
      "geometry": {
        "type": "Point",
        "coordinates": [
          16.16265, 48.19512
        ]
      },
      "properties": {
         "title": "Purkersdorf"
      }
      },
                     
    {
      "type": "Feature",
      "geometry": {
        "type": "Point",
        "coordinates": [
          16.33679, 48.22806
        ]
      },
      "properties": {
         "title": "Café Währingerhof"
      }
      },
                     
    {
      "type": "Feature",
      "geometry": {
        "type": "Point",
        "coordinates": [
          16.09456, 48.25022
        ]
      },
      "properties": {
         "title": "Riederberg"
      }
      },
                     
    {
      "type": "Feature",
      "geometry": {
        "type": "Point",
        "coordinates": [
          14.03333, 48.15
        ]
      },
      "properties": {
         "title": "Thalheim bei Wels"
      }
      }
                  
  ]
}