{
  "type": "FeatureCollection",
  "features": [
    {
      "type": "Feature", 
      "geometry": {
        "type": "LineString", 
        "coordinates": [
            [16.37312, 48.20122], 
            [16.37341, 48.2066], 
            [16.37438, 48.21099], 
            [16.33716, 48.23188], 
            [16.26161, 48.21575]
          ]
      },
      "properties": {
        "name": "4. Oktober 1931"
      }
    },
                     
    {
      "type": "Feature",
      "geometry": {
        "type": "Point",
        "coordinates": [
          16.37341, 48.2066
        ]
      },
      "properties": {
         "title": "Wien"
      }
      },
                     
    {
      "type": "Feature",
      "geometry": {
        "type": "Point",
        "coordinates": [
          16.26161, 48.21575
        ]
      },
      "properties": {
         "title": "Satzberg"
      }
      },
                     
    {
      "type": "Feature",
      "geometry": {
        "type": "Point",
        "coordinates": [
          16.33716, 48.23188
        ]
      },
      "properties": {
         "title": "Sternwartestraße 71"
      }
      },
                     
    {
      "type": "Feature",
      "geometry": {
        "type": "Point",
        "coordinates": [
          16.37438, 48.21099
        ]
      },
      "properties": {
         "title": "Imperialkino"
      }
      },
                     
    {
      "type": "Feature",
      "geometry": {
        "type": "Point",
        "coordinates": [
          16.37312, 48.20122
        ]
      },
      "properties": {
         "title": "Café Imperial"
      }
      }
                  
  ]
}