{
  "type": "FeatureCollection",
  "features": [
    {
      "type": "Feature", 
      "geometry": {
        "type": "LineString", 
        "coordinates": [
            [16.36157, 48.20809], 
            [16.378575, 48.2058448], 
            [16.373056, 48.208333], 
            [16.372398, 48.208898], 
            [16.3713342, 48.2101882], 
            [16.365278, 48.210278]
          ]
      },
      "properties": {
        "name": "1. September 1882"
      }
    },
                     
    {
      "type": "Feature",
      "geometry": {
        "type": "Point",
        "coordinates": [
          16.373056, 48.208333
        ]
      },
      "properties": {
        "title": "Wien",
        "timestamp": ["1882-09-01"],
        "pmb": "https://pmb.acdh.oeaw.ac.at/entity/pmb50/", 
        "wikipedia": "https://de.wikipedia.org/wiki/Wien"
      }
      },
                     
    {
      "type": "Feature",
      "geometry": {
        "type": "Point",
        "coordinates": [
          16.365278, 48.210278
        ]
      },
      "properties": {
        "title": "Café Central",
        "timestamp": ["1882-09-01"],
        "pmb": "https://pmb.acdh.oeaw.ac.at/entity/pmb262/", 
        "wikipedia": "https://de.wikipedia.org/wiki/Caf%C3%A9_Central"
      }
      },
                     
    {
      "type": "Feature",
      "geometry": {
        "type": "Point",
        "coordinates": [
          16.372398, 48.208898
        ]
      },
      "properties": {
        "title": "Café de l’Europe",
        "timestamp": ["1882-09-01"],
        "pmb": "https://pmb.acdh.oeaw.ac.at/entity/pmb34310/"
      }
      },
                     
    {
      "type": "Feature",
      "geometry": {
        "type": "Point",
        "coordinates": [
          16.378575, 48.2058448
        ]
      },
      "properties": {
        "title": "Café Kurzweil »Zur Afrikanerin«",
        "timestamp": ["1882-09-01"],
        "pmb": "https://pmb.acdh.oeaw.ac.at/entity/pmb182839/"
      }
      },
                     
    {
      "type": "Feature",
      "geometry": {
        "type": "Point",
        "coordinates": [
          16.3713342, 48.2101882
        ]
      },
      "properties": {
        "title": "Zum rothen Igel",
        "timestamp": ["1882-09-01"],
        "pmb": "https://pmb.acdh.oeaw.ac.at/entity/pmb116/"
      }
      },
                     
    {
      "type": "Feature",
      "geometry": {
        "type": "Point",
        "coordinates": [
          16.36157, 48.20809
        ]
      },
      "properties": {
        "title": "Volksgarten",
        "timestamp": ["1882-09-01"],
        "pmb": "https://pmb.acdh.oeaw.ac.at/entity/pmb103/"
      }
      }
                     
                  
  ]
}