{
  "type": "FeatureCollection",
  "features": [
    {
      "type": "Feature", 
      "geometry": {
        "type": "LineString", 
        "coordinates": [
            [8.74512, 46.00185], 
            [8.52676, 45.89556], 
            [8.85927, 45.97167], 
            [8.96004, 46.01008], 
            [9.23907, 46.02075], 
            [9.12921, 46.03714], 
            [8.79953, 46.17086]
          ]
      },
      "properties": {
        "name": "22. August 1885"
      }
    },
                     
    {
      "type": "Feature",
      "geometry": {
        "type": "Point",
        "coordinates": [
          8.79953, 46.17086
        ]
      },
      "properties": {
         "title": "Locarno"
      }
      },
                     
    {
      "type": "Feature",
      "geometry": {
        "type": "Point",
        "coordinates": [
          8.52676, 45.89556
        ]
      },
      "properties": {
         "title": "Isola Bella"
      }
      },
                     
    {
      "type": "Feature",
      "geometry": {
        "type": "Point",
        "coordinates": [
          8.74512, 46.00185
        ]
      },
      "properties": {
         "title": "Luino"
      }
      },
                     
    {
      "type": "Feature",
      "geometry": {
        "type": "Point",
        "coordinates": [
          8.96004, 46.01008
        ]
      },
      "properties": {
         "title": "Lugano"
      }
      },
                     
    {
      "type": "Feature",
      "geometry": {
        "type": "Point",
        "coordinates": [
          9.12921, 46.03714
        ]
      },
      "properties": {
         "title": "Porlezza"
      }
      },
                     
    {
      "type": "Feature",
      "geometry": {
        "type": "Point",
        "coordinates": [
          9.23907, 46.02075
        ]
      },
      "properties": {
         "title": "Menaggio"
      }
      },
                     
    {
      "type": "Feature",
      "geometry": {
        "type": "Point",
        "coordinates": [
          8.85927, 45.97167
        ]
      },
      "properties": {
         "title": "Ponte Tresa"
      }
      }
                  
  ]
}