{
  "type": "FeatureCollection",
  "features": [
    {
      "type": "Feature", 
      "geometry": {
        "type": "LineString", 
        "coordinates": [
            [16.365171, 48.203037], 
            [16.370064, 48.202791], 
            [16.373056, 48.208333], 
            [16.361139, 48.210333], 
            [16.351111, 48.209583]
          ]
      },
      "properties": {
        "name": "12. Dezember 1893"
      }
    },
                     
    {
      "type": "Feature",
      "geometry": {
        "type": "Point",
        "coordinates": [
          16.373056, 48.208333
        ]
      },
      "properties": {
         "title": "Wien"
      }
      },
                     
    {
      "type": "Feature",
      "geometry": {
        "type": "Point",
        "coordinates": [
          16.361139, 48.210333
        ]
      },
      "properties": {
         "title": "Burgtheater"
      }
      },
                     
    {
      "type": "Feature",
      "geometry": {
        "type": "Point",
        "coordinates": [
          16.351111, 48.209583
        ]
      },
      "properties": {
         "title": "Theater in der Josefstadt"
      }
      },
                     
    {
      "type": "Feature",
      "geometry": {
        "type": "Point",
        "coordinates": [
          16.365171, 48.203037
        ]
      },
      "properties": {
         "title": "Opernring 19"
      }
      },
                     
    {
      "type": "Feature",
      "geometry": {
        "type": "Point",
        "coordinates": [
          16.370064, 48.202791
        ]
      },
      "properties": {
         "title": "Hotel Bristol Wien"
      }
      }
                  
  ]
}