{
  "type": "FeatureCollection",
  "features": [
    {
      "type": "Feature", 
      "geometry": {
        "type": "LineString", 
        "coordinates": [
            [16.357698927082215, 48.1910599600889], 
            [16.371296264238, 48.202432234197], 
            [16.373056, 48.208333], 
            [16.370068, 48.213056], 
            [16.366111, 48.208258]
          ]
      },
      "properties": {
        "name": "13. April 1895"
      }
    },
                     
    {
      "type": "Feature",
      "geometry": {
        "type": "Point",
        "coordinates": [
          16.373056, 48.208333
        ]
      },
      "properties": {
         "title": "Wien"
      }
      },
                     
                     
    {
      "type": "Feature",
      "geometry": {
        "type": "Point",
        "coordinates": [
          16.366111, 48.208258
        ]
      },
      "properties": {
         "title": "Café Griensteidl"
      }
      },
                     
    {
      "type": "Feature",
      "geometry": {
        "type": "Point",
        "coordinates": [
          16.370068, 48.213056
        ]
      },
      "properties": {
         "title": "Café Müller"
      }
      },
                     
    {
      "type": "Feature",
      "geometry": {
        "type": "Point",
        "coordinates": [
          16.371296264238, 48.202432234197
        ]
      },
      "properties": {
         "title": "Ringstraße"
      }
      },
                     
    {
      "type": "Feature",
      "geometry": {
        "type": "Point",
        "coordinates": [
          16.357698927082215, 48.1910599600889
        ]
      },
      "properties": {
         "title": "Margaretenstraße"
      }
      }
                  
  ]
}