{
  "type": "FeatureCollection",
  "features": [
    {
      "type": "Feature", 
      "geometry": {
        "type": "LineString", 
        "coordinates": [
            [15.33186, 48.22737], 
            [16.373056, 48.208333], 
            [16.32522, 48.30521], 
            [16.209444, 48.327778], 
            [16.24226, 48.34667], 
            [16.06409, 48.33327], 
            [15.41667, 48.33333]
          ]
      },
      "properties": {
        "name": "23. Juni 1895"
      }
    },
                     
    {
      "type": "Feature",
      "geometry": {
        "type": "Point",
        "coordinates": [
          16.373056, 48.208333
        ]
      },
      "properties": {
         "title": "Wien"
      }
      },
                     
    {
      "type": "Feature",
      "geometry": {
        "type": "Point",
        "coordinates": [
          16.06409, 48.33327
        ]
      },
      "properties": {
         "title": "Tulln an der Donau"
      }
      },
                     
    {
      "type": "Feature",
      "geometry": {
        "type": "Point",
        "coordinates": [
          15.33186, 48.22737
        ]
      },
      "properties": {
         "title": "Melk"
      }
      },
                     
    {
      "type": "Feature",
      "geometry": {
        "type": "Point",
        "coordinates": [
          15.41667, 48.33333
        ]
      },
      "properties": {
         "title": "Wachau"
      }
      },
                     
    {
      "type": "Feature",
      "geometry": {
        "type": "Point",
        "coordinates": [
          16.32522, 48.30521
        ]
      },
      "properties": {
         "title": "Klosterneuburg"
      }
      },
                     
    {
      "type": "Feature",
      "geometry": {
        "type": "Point",
        "coordinates": [
          16.209444, 48.327778
        ]
      },
      "properties": {
         "title": "St. Andrä-Wördern"
      }
      },
                     
    {
      "type": "Feature",
      "geometry": {
        "type": "Point",
        "coordinates": [
          16.24226, 48.34667
        ]
      },
      "properties": {
         "title": "Greifenstein"
      }
      }
                  
  ]
}