{
  "type": "FeatureCollection",
  "features": [
    {
      "type": "Feature", 
      "geometry": {
        "type": "LineString", 
        "coordinates": [
            [16.357698927082215, 48.1910599600889], 
            [16.371296264238, 48.202432234197], 
            [16.373056, 48.208333], 
            [16.370068, 48.213056], 
            [16.366111, 48.208258], 
            [16.35736, 48.21533]
          ]
      },
      "properties": {
        "name": "13. April 1895"
      }
    },
                     
    {
      "type": "Feature",
      "geometry": {
        "type": "Point",
        "coordinates": [
          16.373056, 48.208333
        ]
      },
      "properties": {
        "title": "Wien",
        "timestamp": ["1895-04-13"],
        "pmb": "https://pmb.acdh.oeaw.ac.at/entity/pmb50/", 
        "wikipedia": "https://de.wikipedia.org/wiki/Wien"
      }
      },
                     
                     
    {
      "type": "Feature",
      "geometry": {
        "type": "Point",
        "coordinates": [
          16.366111, 48.208258
        ]
      },
      "properties": {
        "title": "Café Griensteidl",
        "timestamp": ["1895-04-13"],
        "pmb": "https://pmb.acdh.oeaw.ac.at/entity/pmb34/", 
        "wikipedia": "https://de.wikipedia.org/wiki/Caf%C3%A9_Griensteidl"
      }
      },
                     
    {
      "type": "Feature",
      "geometry": {
        "type": "Point",
        "coordinates": [
          16.370068, 48.213056
        ]
      },
      "properties": {
        "title": "Café Müller",
        "timestamp": ["1895-04-13"],
        "pmb": "https://pmb.acdh.oeaw.ac.at/entity/pmb199115/"
      }
      },
                     
    {
      "type": "Feature",
      "geometry": {
        "type": "Point",
        "coordinates": [
          16.371296264238, 48.202432234197
        ]
      },
      "properties": {
        "title": "Ringstraße",
        "timestamp": ["1895-04-13"],
        "pmb": "https://pmb.acdh.oeaw.ac.at/entity/pmb112/", 
        "wikipedia": "https://de.wikipedia.org/wiki/Wiener_Ringstra%C3%9Fe"
      }
      },
                     
    {
      "type": "Feature",
      "geometry": {
        "type": "Point",
        "coordinates": [
          16.357698927082215, 48.1910599600889
        ]
      },
      "properties": {
        "title": "Margaretenstraße",
        "timestamp": ["1895-04-13"],
        "pmb": "https://pmb.acdh.oeaw.ac.at/entity/pmb55220/", 
        "wiengeschichtewiki": "https://www.geschichtewiki.wien.gv.at/Margaretenstraße"
      }
      },
                     
    {
      "type": "Feature",
      "geometry": {
        "type": "Point",
        "coordinates": [
          16.35736, 48.21533
        ]
      },
      "properties": {
        "title": "Frankgasse 1",
        "timestamp": ["1895-04-13"],
        "pmb": "https://pmb.acdh.oeaw.ac.at/entity/pmb168934/"
      }
      }
                  
  ]
}