{
  "type": "FeatureCollection",
  "features": [
    {
      "type": "Feature", 
      "geometry": {
        "type": "LineString", 
        "coordinates": [
            [16.3067984, 48.1806202], 
            [16.357698927082215, 48.1910599600889], 
            [16.357698927082215, 48.1910599600889], 
            [16.375924, 48.208656], 
            [16.361139, 48.210333], 
            [16.35736, 48.21533]
          ]
      },
      "properties": {
        "name": "29. Oktober 1897"
      }
    },
    {
      "type": "Feature",
      "geometry": {
        "type": "Point",
        "coordinates": [
          16.361139, 48.210333
        ]
      },
      "properties": {
        "title": "Burgtheater",
        "timestamp": ["1897-10-29"],
        "pmb": "https://pmb.acdh.oeaw.ac.at/entity//"
      }
      },
    {
      "type": "Feature",
      "geometry": {
        "type": "Point",
        "coordinates": [
          16.375924, 48.208656
        ]
      },
      "properties": {
        "title": "Wollzeile 15 (»Berthahof«)",
        "timestamp": ["1897-10-29"],
        "pmb": "https://pmb.acdh.oeaw.ac.at/entity//"
      }
      },
    {
      "type": "Feature",
      "geometry": {
        "type": "Point",
        "coordinates": [
          16.357698927082215, 48.1910599600889
        ]
      },
      "properties": {
        "title": "Margaretenstraße",
        "timestamp": ["1897-10-29"],
        "pmb": "https://pmb.acdh.oeaw.ac.at/entity//", 
        "wiengeschichtewiki": "https://www.geschichtewiki.wien.gv.at/Margaretenstraße"
      }
      },
    {
      "type": "Feature",
      "geometry": {
        "type": "Point",
        "coordinates": [
          16.357698927082215, 48.1910599600889
        ]
      },
      "properties": {
        "title": "Margaretenstraße",
        "timestamp": ["1897-10-29"],
        "pmb": "https://pmb.acdh.oeaw.ac.at/entity//", 
        "wiengeschichtewiki": "https://www.geschichtewiki.wien.gv.at/Margaretenstraße"
      }
      },
    {
      "type": "Feature",
      "geometry": {
        "type": "Point",
        "coordinates": [
          16.35736, 48.21533
        ]
      },
      "properties": {
        "title": "Frankgasse 1",
        "timestamp": ["1897-10-29"],
        "pmb": "https://pmb.acdh.oeaw.ac.at/entity//"
      }
      },
    {
      "type": "Feature",
      "geometry": {
        "type": "Point",
        "coordinates": [
          16.3067984, 48.1806202
        ]
      },
      "properties": {
        "title": "Schlosspark Schönbrunn",
        "timestamp": ["1897-10-29"],
        "pmb": "https://pmb.acdh.oeaw.ac.at/entity//"
      }
      }
  ]
}