{
  "type": "FeatureCollection",
  "features": [
    {
      "type": "Feature", 
      "geometry": {
        "type": "LineString", 
        "coordinates": [
            [16.24924, 48.08736], 
            [16.3672713, 48.1950553], 
            [16.3691, 48.203], 
            [16.361349, 48.223406], 
            [16.355191, 48.248422]
          ]
      },
      "properties": {
        "name": "21. Mai 1902"
      }
    },
                     
    {
      "type": "Feature",
      "geometry": {
        "type": "Point",
        "coordinates": [
          16.24924, 48.08736
        ]
      },
      "properties": {
         "title": "Hauptstraße 56"
      }
      },
                     
    {
      "type": "Feature",
      "geometry": {
        "type": "Point",
        "coordinates": [
          16.3691, 48.203
        ]
      },
      "properties": {
         "title": "Oper"
      }
      },
                     
    {
      "type": "Feature",
      "geometry": {
        "type": "Point",
        "coordinates": [
          16.355191, 48.248422
        ]
      },
      "properties": {
         "title": "Hohe Warte"
      }
      },
                     
    {
      "type": "Feature",
      "geometry": {
        "type": "Point",
        "coordinates": [
          16.361349, 48.223406
        ]
      },
      "properties": {
         "title": "Porzellangasse 45"
      }
      },
                     
    {
      "type": "Feature",
      "geometry": {
        "type": "Point",
        "coordinates": [
          16.3672713, 48.1950553
        ]
      },
      "properties": {
         "title": "Kührer’s Restauration Zum rothen Rössel"
      }
      }
                  
  ]
}