{
  "type": "FeatureCollection",
  "features": [
    {
      "type": "Feature", 
      "geometry": {
        "type": "LineString", 
        "coordinates": [
            [16.371281, 48.204099], 
            [16.375811, 48.203191], 
            [16.371211, 48.206416], 
            [16.373056, 48.208333], 
            [16.358208, 48.214879], 
            [16.366111, 48.209167]
          ]
      },
      "properties": {
        "name": "14. März 1904"
      }
    },
                     
    {
      "type": "Feature",
      "geometry": {
        "type": "Point",
        "coordinates": [
          16.373056, 48.208333
        ]
      },
      "properties": {
         "title": "Wien"
      }
      },
                     
    {
      "type": "Feature",
      "geometry": {
        "type": "Point",
        "coordinates": [
          16.371211, 48.206416
        ]
      },
      "properties": {
         "title": "Meissl & Schadn"
      }
      },
                     
    {
      "type": "Feature",
      "geometry": {
        "type": "Point",
        "coordinates": [
          16.371281, 48.204099
        ]
      },
      "properties": {
         "title": "Krugerstraße 5"
      }
      },
                     
    {
      "type": "Feature",
      "geometry": {
        "type": "Point",
        "coordinates": [
          16.375811, 48.203191
        ]
      },
      "properties": {
         "title": "Kaiserpanorama [Wien]"
      }
      },
                     
    {
      "type": "Feature",
      "geometry": {
        "type": "Point",
        "coordinates": [
          16.358208, 48.214879
        ]
      },
      "properties": {
         "title": "Rooseveltplatz 2"
      }
      },
                     
    {
      "type": "Feature",
      "geometry": {
        "type": "Point",
        "coordinates": [
          16.366111, 48.209167
        ]
      },
      "properties": {
         "title": "Bösendorfer-Saal"
      }
      }
                  
  ]
}