{
  "type": "FeatureCollection",
  "features": [
    {
      "type": "Feature", 
      "geometry": {
        "type": "LineString", 
        "coordinates": [
            [16.35736, 48.21533], 
            [16.363556, 48.211902], 
            [16.375135, 48.204532], 
            [16.373056, 48.208333], 
            [16.356792, 48.226728], 
            [16.33472, 48.2304]
          ]
      },
      "properties": {
        "name": "28. März 1905"
      }
    },
                     
    {
      "type": "Feature",
      "geometry": {
        "type": "Point",
        "coordinates": [
          16.373056, 48.208333
        ]
      },
      "properties": {
         "title": "Wien"
      }
      },
                     
    {
      "type": "Feature",
      "geometry": {
        "type": "Point",
        "coordinates": [
          16.35736, 48.21533
        ]
      },
      "properties": {
         "title": "Frankgasse 1"
      }
      },
                     
    {
      "type": "Feature",
      "geometry": {
        "type": "Point",
        "coordinates": [
          16.363556, 48.211902
        ]
      },
      "properties": {
         "title": "Teinfaltstraße 4"
      }
      },
                     
    {
      "type": "Feature",
      "geometry": {
        "type": "Point",
        "coordinates": [
          16.33472, 48.2304
        ]
      },
      "properties": {
         "title": "Edmund-Weiß-Gasse 7"
      }
      },
                     
    {
      "type": "Feature",
      "geometry": {
        "type": "Point",
        "coordinates": [
          16.356792, 48.226728
        ]
      },
      "properties": {
         "title": "Liechtensteinstraße 68–70"
      }
      },
                     
    {
      "type": "Feature",
      "geometry": {
        "type": "Point",
        "coordinates": [
          16.375135, 48.204532
        ]
      },
      "properties": {
         "title": "Schellinggasse 6"
      }
      }
                  
  ]
}