{
  "type": "FeatureCollection",
  "features": [
    {
      "type": "Feature", 
      "geometry": {
        "type": "LineString", 
        "coordinates": [
            [16.283758, 48.1803], 
            [16.3642, 48.19941], 
            [16.369495, 48.201427], 
            [16.373056, 48.208333], 
            [16.33472, 48.2304]
          ]
      },
      "properties": {
        "name": "20. Mai 1905"
      }
    },
                     
    {
      "type": "Feature",
      "geometry": {
        "type": "Point",
        "coordinates": [
          16.373056, 48.208333
        ]
      },
      "properties": {
         "title": "Wien"
      }
      },
                     
    {
      "type": "Feature",
      "geometry": {
        "type": "Point",
        "coordinates": [
          16.3642, 48.19941
        ]
      },
      "properties": {
         "title": "Theater an der Wien"
      }
      },
                     
    {
      "type": "Feature",
      "geometry": {
        "type": "Point",
        "coordinates": [
          16.283758, 48.1803
        ]
      },
      "properties": {
         "title": "Münichreiterstraße 1"
      }
      },
                     
    {
      "type": "Feature",
      "geometry": {
        "type": "Point",
        "coordinates": [
          16.33472, 48.2304
        ]
      },
      "properties": {
         "title": "Edmund-Weiß-Gasse 7"
      }
      },
                     
    {
      "type": "Feature",
      "geometry": {
        "type": "Point",
        "coordinates": [
          16.369495, 48.201427
        ]
      },
      "properties": {
         "title": "Paul Hopfner und Söhne"
      }
      }
                  
  ]
}