{
  "type": "FeatureCollection",
  "features": [
    {
      "type": "Feature", 
      "geometry": {
        "type": "LineString", 
        "coordinates": [
            [16.299116267833, 48.230916826952], 
            [16.35736, 48.21533], 
            [16.373056, 48.208333], 
            [16.2911, 48.2553], 
            [16.296768550115, 48.248935842869]
          ]
      },
      "properties": {
        "name": "31. Dezember 1906"
      }
    },
                     
    {
      "type": "Feature",
      "geometry": {
        "type": "Point",
        "coordinates": [
          16.373056, 48.208333
        ]
      },
      "properties": {
         "title": "Wien"
      }
      },
                     
    {
      "type": "Feature",
      "geometry": {
        "type": "Point",
        "coordinates": [
          16.296768550115, 48.248935842869
        ]
      },
      "properties": {
         "title": "Sommerhaidenweg"
      }
      },
                     
    {
      "type": "Feature",
      "geometry": {
        "type": "Point",
        "coordinates": [
          16.35736, 48.21533
        ]
      },
      "properties": {
         "title": "Frankgasse 1"
      }
      },
                     
    {
      "type": "Feature",
      "geometry": {
        "type": "Point",
        "coordinates": [
          16.299116267833, 48.230916826952
        ]
      },
      "properties": {
         "title": "Dornbach"
      }
      },
                     
    {
      "type": "Feature",
      "geometry": {
        "type": "Point",
        "coordinates": [
          16.2911, 48.2553
        ]
      },
      "properties": {
         "title": "Salmannsdorf"
      }
      }
                  
  ]
}